,Name,ID,Status,Class,Mass (g),Fall,Year,Latitude,Longitude,GeoLocation
10,Aioun el Atrouss,423.0,Valid,Diogenite-pm,1000.0,Observed,1974.0,16.39806,-9.57028,"(16.398060, -9.570280)"
11,Aïr,424.0,Valid,L6,24000.0,Observed,1925.0,19.08333,8.38333,"(19.083330, 8.383330)"
12,Akaba,426.0,Valid,L6,779.0,Observed,1949.0,29.51667,35.05,"(29.516670, 35.050000)"
14,Akwanga,432.0,Valid,H,3000.0,Observed,1959.0,8.91667,8.43333,"(8.916670, 8.433330)"
16,Al Rais,446.0,Valid,CR2-an,160.0,Observed,1957.0,24.41667,39.51667,"(24.416670, 39.516670)"
17,Al Zarnkh,447.0,Valid,LL5,700.0,Observed,2001.0,13.66033,28.96,"(13.660330, 28.960000)"
20,Alberta,454.0,Valid,L,625.0,Observed,1949.0,2.0,22.66667,"(2.000000, 22.666670)"
29,Almahata Sitta,48915.0,Valid,Ureilite-an,3950.0,Observed,2008.0,20.74575,32.41275,"(20.745750, 32.412750)"
37,Ankober,2304.0,Valid,H4,6500.0,Observed,1942.0,9.53333,39.71667,"(9.533330, 39.716670)"
60,Awere,4910.0,Valid,L4,134.0,Observed,1968.0,2.71667,32.83333,"(2.716670, 32.833330)"
66,Bali,4928.0,Valid,CV3,1000.0,Observed,1907.0,5.38333,16.38333,"(5.383330, 16.383330)"
78,Bassikounou,44876.0,Valid,H5,29560.0,Observed,2006.0,15.78333,-5.9,"(15.783330, -5.900000)"
83,Bawku,4976.0,Valid,LL5,1557.0,Observed,1989.0,11.08333,-0.18333,"(11.083330, -0.183330)"
90,Benguerir,30443.0,Valid,LL6,25000.0,Observed,2004.0,32.25,-8.15,"(32.250000, -8.150000)"
91,Beni M'hira,5018.0,Valid,L6,19000.0,Observed,2001.0,32.86667,10.8,"(32.866670, 10.800000)"
93,Benoni,5023.0,Valid,H6,3880.0,Observed,1943.0,-26.16667,28.41667,"(-26.166670, 28.416670)"
94,Bensour,5024.0,Valid,LL6,45000.0,Observed,2002.0,30.0,-7.0,"(30.000000, -7.000000)"
97,Béréba,5028.0,Valid,Eucrite-mmict,18000.0,Observed,1924.0,11.65,-3.65,"(11.650000, -3.650000)"
102,Beyrout,5035.0,Valid,LL3.8,1100.0,Observed,1921.0,33.88333,35.5,"(33.883330, 35.500000)"
110,Bilanga,5045.0,Valid,Diogenite,25000.0,Observed,1999.0,12.45,-0.08333,"(12.450000, -0.083330)"
112,Birni N'konni,5056.0,Valid,H4,560.0,Observed,1923.0,13.76667,5.3,"(13.766670, 5.300000)"
124,Bogou,5097.0,Valid,"Iron, IAB-MG",8800.0,Observed,1962.0,12.5,0.7,"(12.500000, 0.700000)"
132,Boumdeid (2003),57168.0,Valid,L6,190.0,Observed,2003.0,17.71067,-11.3715,"(17.710670, -11.371500)"
133,Boumdeid (2011),57167.0,Valid,L6,3599.0,Observed,2011.0,17.17493,-11.34133,"(17.174930, -11.341330)"
143,Bununu,5165.0,Valid,Howardite,357.0,Observed,1942.0,10.01667,9.58333,"(10.016670, 9.583330)"
144,Bur-Gheluai,5169.0,Valid,H5,120000.0,Observed,1919.0,5.0,48.0,"(5.000000, 48.000000)"
186,Chela,5338.0,Valid,H4,2936.0,Observed,1988.0,-3.66667,32.5,"(-3.666670, 32.500000)"
188,Chergach ,47347.0,Valid,H5,100000.0,Observed,2007.0,23.69639,-5.01472,"(23.696390, -5.014720)"
196,Chisenga,5355.0,Valid,"Iron, IIIAB",3920.0,Observed,1988.0,-10.05944,33.395,"(-10.059440, 33.395000)"
201,Cold Bokkeveld,5397.0,Valid,CM2,5200.0,Observed,1838.0,-33.13333,19.38333,"(-33.133330, 19.383330)"
208,Cronstad,5474.0,Valid,H5,3650.0,Observed,1877.0,-27.7,27.3,"(-27.700000, 27.300000)"
215,Daniel's Kuil,5513.0,Valid,EL6,1064.0,Observed,1868.0,-28.2,24.56667,"(-28.200000, 24.566670)"
233,Diep River,7642.0,Valid,L6,1000.0,Observed,1906.0,-33.75,18.56667,"(-33.750000, 18.566670)"
236,Djermaia,7656.0,Valid,H,3950.0,Observed,1961.0,12.73333,15.05,"(12.733330, 15.050000)"
245,Dosso,7722.0,Valid,L6,1250.0,Observed,1962.0,13.05,3.16667,"(13.050000, 3.166670)"
246,Douar Mghila,7723.0,Valid,LL6,1161.0,Observed,1932.0,32.33333,-6.3,"(32.333330, -6.300000)"
247,Dowa,7725.0,Valid,Stone-uncl,642.0,Observed,1976.0,-13.66667,33.91667,"(-13.666670, 33.916670)"
254,Duruma,7752.0,Valid,L6,577.0,Observed,1853.0,-4.0,39.5,"(-4.000000, 39.500000)"
256,Dwaleni,7755.0,Valid,H4-6,3230.0,Observed,1970.0,-27.2,31.31667,"(-27.200000, 31.316670)"
260,Ehole,7774.0,Valid,H5,2400.0,Observed,1961.0,-17.3,15.83333,"(-17.300000, 15.833330)"
264,El Idrissia,7807.0,Valid,L6,10000.0,Observed,1989.0,34.41667,3.25,"(34.416670, 3.250000)"
277,Ergheo,10044.0,Valid,L5,20000.0,Observed,1889.0,1.16667,44.16667,"(1.166670, 44.166670)"
280,Essebi,10055.0,Valid,C2-ung,500.0,Observed,1957.0,2.88333,30.83333,"(2.883330, 30.833330)"
304,Galim (a),10848.0,Valid,LL6,36.1,Observed,1952.0,7.05,12.43333,"(7.050000, 12.433330)"
305,Galim (b),10849.0,Valid,EH3/4-an,28.0,Observed,1952.0,7.05,12.43333,"(7.050000, 12.433330)"
310,Gashua,44882.0,Valid,L6,4162.0,Observed,1984.0,12.85,11.03333,"(12.850000, 11.033330)"
311,Geidam,10870.0,Valid,H5,725.0,Observed,1950.0,12.91667,11.91667,"(12.916670, 11.916670)"
314,Git-Git,10919.0,Valid,L6,480.0,Observed,1947.0,9.6,9.91667,"(9.600000, 9.916670)"
335,Guibga,11442.0,Valid,L5,288.0,Observed,1972.0,13.5,-0.68333,"(13.500000, -0.683330)"
336,Guidder,11443.0,Valid,LL5,968.0,Observed,1949.0,9.91667,13.98333,"(9.916670, 13.983330)"
338,Gujba,11449.0,Valid,CBa,100000.0,Observed,1984.0,11.49167,11.65833,"(11.491670, 11.658330)"
341,Gursum,11465.0,Valid,H4/5,34650.0,Observed,1981.0,9.36667,42.41667,"(9.366670, 42.416670)"
353,Hassi-Jekna,11852.0,Valid,"Iron, IAB-sHL",1250.0,Observed,1890.0,28.95,0.81667,"(28.950000, 0.816670)"
357,Hedjaz,11870.0,Valid,L3.7-6,6100.0,Observed,1910.0,27.33333,35.66667,"(27.333330, 35.666670)"
363,Hoima,44714.0,Valid,H6,167.7,Observed,2003.0,1.345,31.47278,"(1.345000, 31.472780)"
366,Holetta,11895.0,Valid,Stone-uncl,1415.0,Observed,1923.0,9.06667,38.41667,"(9.066670, 38.416670)"
378,Idutywa,12000.0,Valid,H5,3457.0,Observed,1956.0,-32.1,28.33333,"(-32.100000, 28.333330)"
386,Ishinga,12049.0,Valid,H,1300.0,Observed,1954.0,-8.93333,33.8,"(-8.933330, 33.800000)"
389,Itqiy,12058.0,Valid,EH7-an,4720.0,Observed,1990.0,26.59083,-12.95217,"(26.590830, -12.952170)"
390,Ivuna,12063.0,Valid,CI1,704.5,Observed,1938.0,-8.41667,32.43333,"(-8.416670, 32.433330)"
391,Jackalsfontein,12065.0,Valid,L6,48000.0,Observed,1903.0,-32.5,21.9,"(-32.500000, 21.900000)"
405,Jolomba,12199.0,Valid,LL6,483.0,Observed,1974.0,-11.85,15.83333,"(-11.850000, 15.833330)"
414,Kabo,12220.0,Valid,H4,13400.0,Observed,1971.0,11.85,8.21667,"(11.850000, 8.216670)"
418,Kaidun,12228.0,Valid,CR2,2000.0,Observed,1980.0,15.0,48.3,"(15.000000, 48.300000)"
422,Kalaba,12232.0,Valid,H4,950.0,Observed,1951.0,-6.83333,29.5,"(-6.833330, 29.500000)"
430,Kapoeta,12251.0,Valid,Howardite,11355.0,Observed,1942.0,4.7,33.63333,"(4.700000, 33.633330)"
434,Karatu,12258.0,Valid,LL6,2220.0,Observed,1963.0,-3.5,35.58333,"(-3.500000, 35.583330)"
435,Karewar,12260.0,Valid,L6,180.0,Observed,1949.0,12.9,7.15,"(12.900000, 7.150000)"
441,Katagum,35465.0,Valid,L6,1500.0,Observed,1999.0,11.33333,10.08333,"(11.333330, 10.083330)"
458,Khor Temiki,12299.0,Valid,Aubrite,3200.0,Observed,1932.0,16.0,36.0,"(16.000000, 36.000000)"
459,Kidairat,12300.0,Valid,H6,100000.0,Observed,1983.0,14.0,28.0,"(14.000000, 28.000000)"
461,Kiffa,12303.0,Valid,H5,1500.0,Observed,1970.0,16.58333,-11.33333,"(16.583330, -11.333330)"
464,Kilabo,12307.0,Valid,LL6,19000.0,Observed,2002.0,12.76667,9.8,"(12.766670, 9.800000)"
467,Kingai,12316.0,Valid,H6,67.4,Observed,1967.0,11.63333,24.68333,"(11.633330, 24.683330)"
515,Leeuwfontein,12756.0,Valid,L6,460.0,Observed,1912.0,-25.66667,28.36667,"(-25.666670, 28.366670)"
521,Lichtenberg,14646.0,Valid,H6,4000.0,Observed,1973.0,-26.15,26.18333,"(-26.150000, 26.183330)"
545,Machinga,15371.0,Valid,L6,93200.0,Observed,1981.0,-15.21222,35.24222,"(-15.212220, 35.242220)"
546,Macibini,15372.0,Valid,Eucrite-pmict,1995.0,Observed,1936.0,-28.83333,31.95,"(-28.833330, 31.950000)"
552,Magombedze,15387.0,Valid,H3-5,666.6,Observed,1990.0,-19.48333,31.65,"(-19.483330, 31.650000)"
554,Maigatari-Danduma,30751.0,Valid,H5/6,4629.0,Observed,2004.0,12.83333,9.38333,"(12.833330, 9.383330)"
556,Malakal,15394.0,Valid,L5,2000.0,Observed,1970.0,9.5,31.75,"(9.500000, 31.750000)"
557,Malampaka,15395.0,Valid,H,470.0,Observed,1930.0,-3.13333,33.51667,"(-3.133330, 33.516670)"
558,Malvern,15400.0,Valid,Eucrite-pmict,807.0,Observed,1933.0,-29.45,26.76667,"(-29.450000, 26.766670)"
562,Mangwendi,15405.0,Valid,LL6,22300.0,Observed,1934.0,-17.65,31.6,"(-17.650000, 31.600000)"
567,Maridi,15421.0,Valid,H6,3200.0,Observed,1941.0,4.66667,29.25,"(4.666670, 29.250000)"
572,Maromandia,15430.0,Valid,L6,6000.0,Observed,2002.0,-14.2,48.1,"(-14.200000, 48.100000)"
577,Mauritius,15447.0,Valid,L6,220.0,Observed,1801.0,-20.0,57.0,"(-20.000000, 57.000000)"
578,Mayo Belwa,15451.0,Valid,Aubrite,4850.0,Observed,1974.0,8.96667,12.08333,"(8.966670, 12.083330)"
580,Maziba,15454.0,Valid,L6,4975.0,Observed,1942.0,-1.21667,30.0,"(-1.216670, 30.000000)"
581,Mbale,15455.0,Valid,L5/6,150000.0,Observed,1992.0,1.06667,34.16667,"(1.066670, 34.166670)"
614,Molteno,16717.0,Valid,Howardite,150.0,Observed,1953.0,-31.25,26.46667,"(-31.250000, 26.466670)"
631,Mount Tazerzait,16804.0,Valid,L5,110000.0,Observed,1991.0,18.7,4.8,"(18.700000, 4.800000)"
633,Mtola,16820.0,Valid,Stone-uncl,1100.0,Observed,1944.0,-11.5,33.5,"(-11.500000, 33.500000)"
640,Nadiabondi,16889.0,Valid,H5,8165.0,Observed,1956.0,12.0,1.0,"(12.000000, 1.000000)"
644,Nakhla,16898.0,Valid,Martian (nakhlite),10000.0,Observed,1911.0,31.31667,30.35,"(31.316670, 30.350000)"
651,Naragh,16909.0,Valid,H6,2700.0,Observed,1974.0,33.75,51.5,"(33.750000, 51.500000)"
657,Nejo,16941.0,Valid,L6,2450.0,Observed,1970.0,9.5,35.33333,"(9.500000, 35.333330)"
661,New Halfa,16954.0,Valid,L4,12000.0,Observed,1994.0,15.36667,35.68333,"(15.366670, 35.683330)"
664,N'Goureyma,16968.0,Valid,"Iron, ungrouped",37500.0,Observed,1900.0,13.85,-4.38333,"(13.850000, -4.383330)"
670,N'Kandhla,16983.0,Valid,"Iron, IID",17200.0,Observed,1912.0,-28.56667,30.7,"(-28.566670, 30.700000)"
692,Ohuma,17996.0,Valid,L5,7700.0,Observed,1963.0,6.75,8.5,"(6.750000, 8.500000)"
709,Ouadangou,56729.0,Valid,L5,4440.0,Observed,2003.0,12.9,0.08,"(12.900000, 0.080000)"
710,Oued el Hadjar,18050.0,Valid,LL6,1215.5,Observed,1986.0,30.18,-6.57717,"(30.180000, -6.577170)"
711,Oum Dreyga,31282.0,Valid,H3-5,17000.0,Observed,2003.0,24.3,-13.1,"(24.300000, -13.100000)"
713,Ovambo,18055.0,Valid,L6,121.5,Observed,1900.0,-18.0,16.0,"(-18.000000, 16.000000)"
743,Peramiho,18792.0,Valid,Eucrite-mmict,165.0,Observed,1899.0,-10.66667,35.5,"(-10.666670, 35.500000)"
748,Pétèlkolé,18800.0,Valid,H5,189.0,Observed,1995.0,14.052,0.42,"(14.052000, 0.420000)"
757,Piquetberg,18832.0,Valid,H,37.0,Observed,1881.0,-32.86667,18.71667,"(-32.866670, 18.716670)"
782,Queen's Mercy,22357.0,Valid,H6,7000.0,Observed,1925.0,-30.11667,28.7,"(-30.116670, 28.700000)"
798,Ras Tanura,22395.0,Valid,H6,6.1,Observed,1961.0,26.66667,50.15,"(26.666670, 50.150000)"
822,Ruhobobo,22780.0,Valid,L6,465.5,Observed,1976.0,-1.45,29.83333,"(-1.450000, 29.833330)"
823,Rumuruti,22782.0,Valid,R3.8-6,67.0,Observed,1934.0,0.26667,36.53333,"(0.266670, 36.533330)"
824,Rupota,22783.0,Valid,L4-6,6000.0,Observed,1949.0,-10.26667,38.76667,"(-10.266670, 38.766670)"
857,Seldebourak,23483.0,Valid,H5,150.0,Observed,1947.0,22.83333,4.98333,"(22.833330, 4.983330)"
867,Sfax,23512.0,Valid,L6,7000.0,Observed,1989.0,34.75,10.71667,"(34.750000, 10.716670)"
882,Sinai,23606.0,Valid,L6,1455.0,Observed,1916.0,30.9,32.48333,"(30.900000, 32.483330)"
899,Soroti,23671.0,Valid,"Iron, ungrouped",2050.0,Observed,1945.0,1.7,33.63333,"(1.700000, 33.633330)"
905,St. Mark's,23090.0,Valid,EH5,13780.0,Observed,1903.0,-32.01667,27.41667,"(-32.016670, 27.416670)"
934,Tamdakht,48691.0,Valid,H5,100000.0,Observed,2008.0,31.16333,-7.015,"(31.163330, -7.015000)"
937,Tatahouine,23884.0,Valid,Diogenite,12000.0,Observed,1931.0,32.95,10.41667,"(32.950000, 10.416670)"
938,Tathlith,23885.0,Valid,L6,2500.0,Observed,1967.0,19.38333,43.73333,"(19.383330, 43.733330)"
944,Thika,54493.0,Valid,L6,14200.0,Observed,2011.0,-1.00278,37.15028,"(-1.002780, 37.150280)"
945,Thuathe,23976.0,Valid,H4/5,45300.0,Observed,2002.0,-29.33333,27.58333,"(-29.333330, 27.583330)"
949,Tillaberi,23999.0,Valid,L6,3000.0,Observed,1970.0,14.25,1.53333,"(14.250000, 1.533330)"
952,Tissint,54823.0,Valid,Martian (shergottite),7000.0,Observed,2011.0,29.48195,-7.61123,"(29.481950, -7.611230)"
981,Udei Station,24101.0,Valid,"Iron, IAB-ung",103000.0,Observed,1927.0,7.95,8.08333,"(7.950000, 8.083330)"
984,Ufana,24106.0,Valid,EL6,189.2,Observed,1957.0,-4.26667,35.35,"(-4.266670, 35.350000)"
987,Umm Ruaba,24118.0,Valid,L5,1700.0,Observed,1966.0,13.46667,31.21667,"(13.466670, 31.216670)"
1017,Werdama,47344.0,Valid,H5,4000.0,Observed,2006.0,32.79732,21.78713,"(32.797320, 21.787130)"
1024,Witklip Farm,24321.0,Valid,H5,22.0,Observed,1918.0,-26.0,30.0,"(-26.000000, 30.000000)"
1025,Witsand Farm,24322.0,Valid,LL4,66.0,Observed,1932.0,-28.66667,18.91667,"(-28.666670, 18.916670)"
1026,Wittekrantz,24323.0,Valid,L5,2200.0,Observed,1880.0,-32.5,23.0,"(-32.500000, 23.000000)"
1027,Wolamo,24324.0,Valid,OC,166.4,Observed,1964.0,9.0,39.0,"(9.000000, 39.000000)"
1034,Yafa,24351.0,Valid,H5,5700.0,Observed,2000.0,13.71111,45.17,"(13.711110, 45.170000)"
1035,Yambo,30345.0,Valid,H5,4.0,Observed,1951.0,1.0,22.5,"(1.000000, 22.500000)"
1047,Zag,30384.0,Valid,H3-6,175000.0,Observed,1998.0,27.33333,-9.33333,"(27.333330, -9.333330)"
1048,Zagami,30386.0,Valid,Martian (shergottite),18000.0,Observed,1962.0,11.73333,7.08333,"(11.733330, 7.083330)"
1060,Zomba,30412.0,Valid,L6,7500.0,Observed,1899.0,-15.18333,35.28333,"(-15.183330, 35.283330)"
1064,Abar al' Uj 001,51399.0,Valid,H3.8,194.34,Found,2008.0,22.72192,48.95937,"(22.721920, 48.959370)"
1068,Abu Moharek,9.0,Valid,H4,4500.0,Found,1997.0,27.23944,29.83583,"(27.239440, 29.835830)"
1069,Acfer 001,11.0,Valid,L6,6700.0,Found,1989.0,27.5,3.61667,"(27.500000, 3.616670)"
1070,Acfer 002,12.0,Valid,H5,228.0,Found,1989.0,27.61667,3.85,"(27.616670, 3.850000)"
1071,Acfer 003,13.0,Valid,H5,145.0,Found,1989.0,27.81667,4.03333,"(27.816670, 4.033330)"
1072,Acfer 004,14.0,Valid,L6,1020.0,Found,1989.0,27.58333,3.81667,"(27.583330, 3.816670)"
1073,Acfer 005,15.0,Valid,H3.9/4,115.0,Found,1989.0,27.6,3.83333,"(27.600000, 3.833330)"
1074,Acfer 006,16.0,Valid,H3.9/4,561.0,Found,1989.0,27.63333,3.96667,"(27.633330, 3.966670)"
1075,Acfer 007,17.0,Valid,L5,542.0,Found,1989.0,27.51667,3.65,"(27.516670, 3.650000)"
1076,Acfer 008,18.0,Valid,H5,205.0,Found,1989.0,27.53333,3.7,"(27.533330, 3.700000)"
1077,Acfer 009,19.0,Valid,L6,127.0,Found,1989.0,27.73333,4.08333,"(27.733330, 4.083330)"
1078,Acfer 010,20.0,Valid,L6,276.0,Found,1989.0,27.75,4.1,"(27.750000, 4.100000)"
1079,Acfer 011,21.0,Valid,H5,3800.0,Found,1989.0,27.75,4.16667,"(27.750000, 4.166670)"
1080,Acfer 012,22.0,Valid,H6,98.0,Found,1989.0,27.8,4.16667,"(27.800000, 4.166670)"
1081,Acfer 013,23.0,Valid,H5,490.0,Found,1989.0,27.83333,4.28333,"(27.833330, 4.283330)"
1082,Acfer 014,24.0,Valid,H5,307.0,Found,1989.0,27.8,4.46667,"(27.800000, 4.466670)"
1083,Acfer 015,25.0,Valid,L6,98.0,Found,1989.0,27.78333,4.28333,"(27.783330, 4.283330)"
1084,Acfer 016,26.0,Valid,H4-5,111.0,Found,1989.0,27.71667,4.48333,"(27.716670, 4.483330)"
1085,Acfer 017,27.0,Valid,L5,446.0,Found,1989.0,27.73333,4.4,"(27.733330, 4.400000)"
1086,Acfer 018,28.0,Valid,H5,207.0,Found,1989.0,27.7,4.08333,"(27.700000, 4.083330)"
1087,Acfer 019,29.0,Valid,L6,581.0,Found,1989.0,27.7,4.06667,"(27.700000, 4.066670)"
1088,Acfer 020,30.0,Valid,H5,708.0,Found,1989.0,27.7,4.06667,"(27.700000, 4.066670)"
1089,Acfer 021,31.0,Valid,H6,2140.0,Found,1989.0,27.55,3.61667,"(27.550000, 3.616670)"
1090,Acfer 022,32.0,Valid,H3.7,192.0,Found,1989.0,27.51667,3.83333,"(27.516670, 3.833330)"
1091,Acfer 023,33.0,Valid,H3.8,118.0,Found,1989.0,27.51667,3.91667,"(27.516670, 3.916670)"
1092,Acfer 024,34.0,Valid,H5,1464.0,Found,1989.0,27.55,3.93333,"(27.550000, 3.933330)"
1093,Acfer 025,35.0,Valid,H5,920.0,Found,1989.0,27.58333,3.96667,"(27.583330, 3.966670)"
1094,Acfer 026,36.0,Valid,H5/6,88.0,Found,1989.0,27.61667,4.05,"(27.616670, 4.050000)"
1095,Acfer 027,37.0,Valid,H5,206.0,Found,1989.0,27.66667,4.2,"(27.666670, 4.200000)"
1096,Acfer 028,38.0,Valid,H3.8,3130.0,Found,1989.0,27.66667,4.25,"(27.666670, 4.250000)"
1097,Acfer 029,39.0,Valid,H4,98.0,Found,1989.0,27.68333,4.33333,"(27.683330, 4.333330)"
1098,Acfer 030,40.0,Valid,LL6,123.0,Found,1989.0,27.68333,4.41667,"(27.683330, 4.416670)"
1099,Acfer 031,41.0,Valid,H5,2016.0,Found,1989.0,27.66667,4.35,"(27.666670, 4.350000)"
1100,Acfer 032,42.0,Valid,L6,495.0,Found,1989.0,27.65,4.46667,"(27.650000, 4.466670)"
1101,Acfer 033,43.0,Valid,L6,93.0,Found,1989.0,27.65,4.43333,"(27.650000, 4.433330)"
1102,Acfer 034,44.0,Valid,L6,184.0,Found,1989.0,27.63333,4.35,"(27.633330, 4.350000)"
1103,Acfer 035,45.0,Valid,H6,36.0,Found,1989.0,27.6,4.3,"(27.600000, 4.300000)"
1104,Acfer 036,46.0,Valid,L5/6,112.0,Found,1989.0,27.58333,4.25,"(27.583330, 4.250000)"
1105,Acfer 037,47.0,Valid,LL4-6,385.0,Found,1989.0,27.55,4.13333,"(27.550000, 4.133330)"
1106,Acfer 038,48.0,Valid,H5,962.0,Found,1989.0,27.53333,4.0,"(27.533330, 4.000000)"
1107,Acfer 039,49.0,Valid,L3.8,225.0,Found,1989.0,27.53333,3.91667,"(27.533330, 3.916670)"
1108,Acfer 040,50.0,Valid,L5-6,146.0,Found,1989.0,27.46667,3.78333,"(27.466670, 3.783330)"
1109,Acfer 041,51.0,Valid,L/LL6,134.0,Found,1989.0,27.43333,3.71667,"(27.433330, 3.716670)"
1110,Acfer 042,52.0,Valid,H5,246.0,Found,1989.0,27.46667,3.83333,"(27.466670, 3.833330)"
1111,Acfer 043,53.0,Valid,H4,120.0,Found,1989.0,27.51667,3.91667,"(27.516670, 3.916670)"
1112,Acfer 044,54.0,Valid,L6,195.0,Found,1989.0,27.55,4.0,"(27.550000, 4.000000)"
1113,Acfer 046,56.0,Valid,H5,1066.0,Found,1989.0,27.78333,4.7,"(27.783330, 4.700000)"
1114,Acfer 047,57.0,Valid,L4,1440.0,Found,1989.0,27.83333,4.7,"(27.833330, 4.700000)"
1115,Acfer 048,58.0,Valid,H4-5,115.0,Found,1989.0,27.55,4.08333,"(27.550000, 4.083330)"
1116,Acfer 049,59.0,Valid,H5,82.9,Found,1989.0,27.41667,3.71667,"(27.416670, 3.716670)"
1117,Acfer 050,60.0,Valid,H6,1394.0,Found,1989.0,27.65,4.5,"(27.650000, 4.500000)"
1118,Acfer 051,61.0,Valid,L5,905.0,Found,1989.0,27.61667,4.41667,"(27.616670, 4.416670)"
1119,Acfer 052,62.0,Valid,L5,58.0,Found,1989.0,27.75,4.15,"(27.750000, 4.150000)"
1120,Acfer 053,63.0,Valid,H6,1937.0,Found,1989.0,27.73333,4.05,"(27.733330, 4.050000)"
1121,Acfer 054,64.0,Valid,H5,2051.0,Found,1989.0,27.7,3.93333,"(27.700000, 3.933330)"
1122,Acfer 055,65.0,Valid,H5,1338.0,Found,1989.0,27.5,3.98333,"(27.500000, 3.983330)"
1123,Acfer 056,66.0,Valid,L4,129.0,Found,1989.0,27.46667,3.88333,"(27.466670, 3.883330)"
1124,Acfer 058,67.0,Valid,LL5-6,277.0,Found,1989.0,27.38333,3.71667,"(27.383330, 3.716670)"
1125,Acfer 059,68.0,Valid,CR2,281.0,Found,1989.0,27.51667,4.06667,"(27.516670, 4.066670)"
1126,Acfer 060,69.0,Valid,H4,226.0,Found,1989.0,27.56667,4.16667,"(27.566670, 4.166670)"
1127,Acfer 061,70.0,Valid,H4-5,105.0,Found,1989.0,27.6,4.25,"(27.600000, 4.250000)"
1128,Acfer 062,71.0,Valid,H5,283.0,Found,1989.0,27.6,4.41667,"(27.600000, 4.416670)"
1129,Acfer 063,72.0,Valid,Mesosiderite,716.0,Found,1989.0,27.61667,4.56667,"(27.616670, 4.566670)"
1130,Acfer 064,73.0,Valid,L5,854.0,Found,1989.0,27.61667,4.56667,"(27.616670, 4.566670)"
1131,Acfer 065,74.0,Valid,H4-5,1539.0,Found,1989.0,27.5,4.28333,"(27.500000, 4.283330)"
1132,Acfer 066,75.0,Valid,LL3.8-6,517.0,Found,1990.0,27.63333,4.06667,"(27.633330, 4.066670)"
1133,Acfer 067,76.0,Valid,H5,383.0,Found,1990.0,27.71667,4.78333,"(27.716670, 4.783330)"
1134,Acfer 068,77.0,Valid,L6,1805.0,Found,1990.0,27.55,3.7,"(27.550000, 3.700000)"
1135,Acfer 069,78.0,Valid,L6,941.0,Found,1990.0,27.53333,3.83333,"(27.533330, 3.833330)"
1136,Acfer 070,79.0,Valid,H4/5,138.0,Found,1990.0,27.68333,4.48333,"(27.683330, 4.483330)"
1137,Acfer 071,80.0,Valid,L6,1379.0,Found,1990.0,27.63333,4.28333,"(27.633330, 4.283330)"
1138,Acfer 072,81.0,Valid,L5/6,162.0,Found,1990.0,27.63333,4.25,"(27.633330, 4.250000)"
1139,Acfer 073,82.0,Valid,H5,2010.0,Found,1990.0,27.53333,3.85,"(27.533330, 3.850000)"
1140,Acfer 074,83.0,Valid,L6,384.0,Found,1990.0,27.48333,3.83333,"(27.483330, 3.833330)"
1141,Acfer 075,84.0,Valid,H5,1453.0,Found,1990.0,27.51667,3.73333,"(27.516670, 3.733330)"
1142,Acfer 076,85.0,Valid,H5,183.0,Found,1990.0,27.7,4.35,"(27.700000, 4.350000)"
1143,Acfer 077,86.0,Valid,L6,2538.0,Found,1990.0,27.63333,4.51667,"(27.633330, 4.516670)"
1144,Acfer 078,87.0,Valid,H5,105.0,Found,1990.0,27.56667,4.15,"(27.566670, 4.150000)"
1145,Acfer 079,88.0,Valid,L6,387.0,Found,1990.0,27.5,3.68333,"(27.500000, 3.683330)"
1146,Acfer 080,89.0,Valid,L3.9,574.0,Found,1990.0,27.63333,4.51667,"(27.633330, 4.516670)"
1147,Acfer 081,90.0,Valid,LL5-6,110.0,Found,1990.0,27.53333,3.86667,"(27.533330, 3.866670)"
1148,Acfer 082,91.0,Valid,CV3,208.0,Found,1990.0,27.5,3.48333,"(27.500000, 3.483330)"
1149,Acfer 083,92.0,Valid,L6,690.0,Found,1990.0,27.48333,3.63333,"(27.483330, 3.633330)"
1150,Acfer 084,93.0,Valid,H5,6300.0,Found,1990.0,27.55,3.86667,"(27.550000, 3.866670)"
1151,Acfer 085,94.0,Valid,H5,293.0,Found,1990.0,27.58333,3.95,"(27.583330, 3.950000)"
1152,Acfer 086,95.0,Valid,CV3,173.0,Found,1990.0,27.66667,4.18333,"(27.666670, 4.183330)"
1153,Acfer 087,96.0,Valid,CR2,163.0,Found,1990.0,27.7,4.26667,"(27.700000, 4.266670)"
1154,Acfer 088,97.0,Valid,L6,200.0,Found,1990.0,27.75,4.43333,"(27.750000, 4.433330)"
1155,Acfer 089,98.0,Valid,H5,682.0,Found,1990.0,27.63333,4.3,"(27.633330, 4.300000)"
1156,Acfer 090,99.0,Valid,H5,290.0,Found,1990.0,27.5,3.83333,"(27.500000, 3.833330)"
1157,Acfer 091,100.0,Valid,LL5-6,3487.0,Found,1990.0,27.45,4.11667,"(27.450000, 4.116670)"
1158,Acfer 092,101.0,Valid,H5,244.0,Found,1990.0,27.66667,4.51667,"(27.666670, 4.516670)"
1159,Acfer 093,102.0,Valid,L5,420.0,Found,1990.0,27.71667,4.13333,"(27.716670, 4.133330)"
1160,Acfer 094,103.0,Valid,C2-ung,82.0,Found,1990.0,27.73333,4.43333,"(27.733330, 4.433330)"
1161,Acfer 095,104.0,Valid,H3.7,104.0,Found,1990.0,27.71667,4.38333,"(27.716670, 4.383330)"
1162,Acfer 096,105.0,Valid,L4-5,572.0,Found,1990.0,27.61667,4.2,"(27.616670, 4.200000)"
1163,Acfer 097,106.0,Valid,CR2,63.0,Found,1990.0,27.51667,3.96667,"(27.516670, 3.966670)"
1164,Acfer 098,107.0,Valid,H5,5500.0,Found,1990.0,27.46667,3.88333,"(27.466670, 3.883330)"
1165,Acfer 099,108.0,Valid,H5,313.0,Found,1990.0,27.45,3.83333,"(27.450000, 3.833330)"
1166,Acfer 100,109.0,Valid,H6,140.0,Found,1990.0,27.46667,3.95,"(27.466670, 3.950000)"
1167,Acfer 101,110.0,Valid,L6,452.0,Found,1990.0,27.53333,4.16667,"(27.533330, 4.166670)"
1168,Acfer 102,111.0,Valid,L3-5,346.0,Found,1990.0,27.66667,4.46667,"(27.666670, 4.466670)"
1169,Acfer 103,112.0,Valid,H5,665.0,Found,1990.0,27.8,4.5,"(27.800000, 4.500000)"
1170,Acfer 104,113.0,Valid,H4/5,992.0,Found,1990.0,27.63333,4.36667,"(27.633330, 4.366670)"
1171,Acfer 105,114.0,Valid,L6,392.0,Found,1990.0,27.55,4.13333,"(27.550000, 4.133330)"
1172,Acfer 106,115.0,Valid,LL6,1390.0,Found,1990.0,27.5,3.9,"(27.500000, 3.900000)"
1173,Acfer 107,116.0,Valid,L6,105.0,Found,1990.0,27.45,3.75,"(27.450000, 3.750000)"
1174,Acfer 108,117.0,Valid,H6,828.0,Found,1990.0,27.5,3.88333,"(27.500000, 3.883330)"
1175,Acfer 109,118.0,Valid,H4/5,236.0,Found,1990.0,27.55,3.76667,"(27.550000, 3.766670)"
1176,Acfer 110,119.0,Valid,L6,107.0,Found,1990.0,27.48333,3.8,"(27.483330, 3.800000)"
1177,Acfer 111,120.0,Valid,H3-6,987.0,Found,1990.0,27.48333,3.8,"(27.483330, 3.800000)"
1178,Acfer 112,121.0,Valid,LL4/5,216.0,Found,1990.0,27.65,4.03333,"(27.650000, 4.033330)"
1179,Acfer 113,122.0,Valid,LL6,2906.0,Found,1990.0,27.56667,4.03333,"(27.566670, 4.033330)"
1180,Acfer 114,123.0,Valid,CR2,43.0,Found,1990.0,27.6,3.96667,"(27.600000, 3.966670)"
1181,Acfer 115,124.0,Valid,H6,287.0,Found,1990.0,27.73333,4.16667,"(27.733330, 4.166670)"
1182,Acfer 116,125.0,Valid,L6,345.0,Found,1990.0,27.73333,4.16667,"(27.733330, 4.166670)"
1183,Acfer 117,126.0,Valid,H4,178.0,Found,1990.0,27.73333,4.2,"(27.733330, 4.200000)"
1184,Acfer 118,127.0,Valid,L6,752.0,Found,1990.0,27.66667,4.2,"(27.666670, 4.200000)"
1185,Acfer 119,128.0,Valid,H3.8,121.0,Found,1990.0,27.65,4.23333,"(27.650000, 4.233330)"
1186,Acfer 120,129.0,Valid,LL6,861.0,Found,1990.0,27.65,4.3,"(27.650000, 4.300000)"
1187,Acfer 121,130.0,Valid,L5-6,427.0,Found,1990.0,27.68333,4.33333,"(27.683330, 4.333330)"
1188,Acfer 122,131.0,Valid,L4/5,235.0,Found,1990.0,27.5,3.66667,"(27.500000, 3.666670)"
1189,Acfer 123,132.0,Valid,H3.9,452.0,Found,1990.0,27.46667,3.76667,"(27.466670, 3.766670)"
1190,Acfer 124,133.0,Valid,LL5-6,542.0,Found,1990.0,27.6,4.05,"(27.600000, 4.050000)"
1191,Acfer 125,134.0,Valid,L6,3380.0,Found,1990.0,27.68333,4.35,"(27.683330, 4.350000)"
1192,Acfer 126,135.0,Valid,LL5-6,280.0,Found,1990.0,27.51667,3.8,"(27.516670, 3.800000)"
1193,Acfer 127,136.0,Valid,L6,699.0,Found,1990.0,27.7,4.3,"(27.700000, 4.300000)"
1194,Acfer 128,137.0,Valid,L6,163.0,Found,1990.0,27.5,4.3,"(27.500000, 4.300000)"
1195,Acfer 129,138.0,Valid,H3.7,162.0,Found,1990.0,27.6,4.2,"(27.600000, 4.200000)"
1196,Acfer 130,139.0,Valid,H5,400.0,Found,1990.0,27.58333,4.0,"(27.583330, 4.000000)"
1197,Acfer 131,140.0,Valid,LL6,171.0,Found,1990.0,27.58333,3.96667,"(27.583330, 3.966670)"
1198,Acfer 132,141.0,Valid,H6,1621.0,Found,1990.0,27.5,3.76667,"(27.500000, 3.766670)"
1199,Acfer 133,142.0,Valid,L3-5,362.0,Found,1990.0,27.5,3.83333,"(27.500000, 3.833330)"
1200,Acfer 134,143.0,Valid,L5,1161.0,Found,1990.0,27.76667,4.53333,"(27.766670, 4.533330)"
1201,Acfer 135,144.0,Valid,H5,124.0,Found,1990.0,27.55,4.03333,"(27.550000, 4.033330)"
1202,Acfer 136,145.0,Valid,H5,324.0,Found,1990.0,27.46667,4.05,"(27.466670, 4.050000)"
1203,Acfer 137,146.0,Valid,H4/5,106.0,Found,1990.0,27.58333,4.08333,"(27.583330, 4.083330)"
1204,Acfer 138,147.0,Valid,L5,941.0,Found,1990.0,27.66667,4.08333,"(27.666670, 4.083330)"
1205,Acfer 139,148.0,Valid,CR2,143.0,Found,1990.0,27.56667,4.08333,"(27.566670, 4.083330)"
1206,Acfer 140,149.0,Valid,L5,171.0,Found,1990.0,27.56667,4.08333,"(27.566670, 4.083330)"
1207,Acfer 141,150.0,Valid,H5,58.0,Found,1990.0,27.58333,3.85,"(27.583330, 3.850000)"
1208,Acfer 142,151.0,Valid,L5,91.0,Found,1990.0,27.56667,4.35,"(27.566670, 4.350000)"
1209,Acfer 143,152.0,Valid,L6,417.0,Found,1990.0,27.66667,4.45,"(27.666670, 4.450000)"
1210,Acfer 144,153.0,Valid,L6,186.0,Found,1990.0,27.66667,4.28333,"(27.666670, 4.283330)"
1211,Acfer 145,154.0,Valid,L6,869.0,Found,1990.0,27.66667,4.28333,"(27.666670, 4.283330)"
1212,Acfer 146,155.0,Valid,H5,200.0,Found,1990.0,27.63333,4.08333,"(27.633330, 4.083330)"
1213,Acfer 147,156.0,Valid,L6,140.0,Found,1990.0,27.6,4.11667,"(27.600000, 4.116670)"
1214,Acfer 148,157.0,Valid,H5,157.0,Found,1990.0,27.58333,4.06667,"(27.583330, 4.066670)"
1215,Acfer 149,158.0,Valid,L/LL6,394.0,Found,1990.0,27.58333,4.05,"(27.583330, 4.050000)"
1216,Acfer 150,159.0,Valid,H5,251.0,Found,1990.0,27.56667,3.81667,"(27.566670, 3.816670)"
1217,Acfer 151,160.0,Valid,H5,218.0,Found,1990.0,27.46667,3.71667,"(27.466670, 3.716670)"
1218,Acfer 152,161.0,Valid,H5,157.0,Found,1990.0,27.43333,3.75,"(27.433330, 3.750000)"
1219,Acfer 153,162.0,Valid,H3.6-6,211.0,Found,1990.0,27.53333,3.95,"(27.533330, 3.950000)"
1220,Acfer 154,163.0,Valid,H5,95.0,Found,1990.0,27.55,4.01667,"(27.550000, 4.016670)"
1221,Acfer 155,164.0,Valid,L6,206.0,Found,1990.0,27.66667,4.25,"(27.666670, 4.250000)"
1222,Acfer 156,165.0,Valid,L6,240.0,Found,1990.0,27.66667,4.23333,"(27.666670, 4.233330)"
1223,Acfer 157,166.0,Valid,L6,1072.0,Found,1990.0,27.66667,4.23333,"(27.666670, 4.233330)"
1224,Acfer 158,167.0,Valid,H4/5,422.0,Found,1990.0,27.66667,4.21667,"(27.666670, 4.216670)"
1225,Acfer 159,168.0,Valid,H3.8,123.0,Found,1990.0,27.5,3.93333,"(27.500000, 3.933330)"
1226,Acfer 160,169.0,Valid,LL3.8-6,433.0,Found,1990.0,27.46667,3.71667,"(27.466670, 3.716670)"
1227,Acfer 161,170.0,Valid,H5,604.0,Found,1990.0,27.75,4.43333,"(27.750000, 4.433330)"
1228,Acfer 162,171.0,Valid,H3-6,1281.0,Found,1990.0,27.66667,4.01667,"(27.666670, 4.016670)"
1229,Acfer 163,172.0,Valid,H3.8-5,125.0,Found,1990.0,27.7,4.35,"(27.700000, 4.350000)"
1230,Acfer 164,173.0,Valid,H5,43.0,Found,1990.0,27.53333,4.18333,"(27.533330, 4.183330)"
1231,Acfer 165,174.0,Valid,H5-6,84.0,Found,1990.0,27.56667,4.33333,"(27.566670, 4.333330)"
1232,Acfer 166,175.0,Valid,H3-5,2476.0,Found,1990.0,27.51667,4.23333,"(27.516670, 4.233330)"
1233,Acfer 167,176.0,Valid,L5,157.0,Found,1990.0,27.51667,4.0,"(27.516670, 4.000000)"
1234,Acfer 168,177.0,Valid,L6,211.0,Found,1990.0,27.6,3.98333,"(27.600000, 3.983330)"
1235,Acfer 169,178.0,Valid,H3.8/4,559.0,Found,1990.0,27.73333,4.11667,"(27.733330, 4.116670)"
1236,Acfer 171,179.0,Valid,H3.7,313.0,Found,1990.0,27.65,4.25,"(27.650000, 4.250000)"
1237,Acfer 172,180.0,Valid,L6,766.0,Found,1990.0,27.66667,4.16667,"(27.666670, 4.166670)"
1238,Acfer 173,181.0,Valid,H6,262.0,Found,1990.0,27.65,4.03333,"(27.650000, 4.033330)"
1239,Acfer 174,182.0,Valid,LL6,127.0,Found,1990.0,27.48333,3.86667,"(27.483330, 3.866670)"
1240,Acfer 175,183.0,Valid,LL5-6,153.0,Found,1990.0,27.48333,3.85,"(27.483330, 3.850000)"
1241,Acfer 176,184.0,Valid,LL5-6,320.0,Found,1990.0,27.48333,3.85,"(27.483330, 3.850000)"
1242,Acfer 177,185.0,Valid,LL5-6,721.0,Found,1990.0,27.48333,3.85,"(27.483330, 3.850000)"
1243,Acfer 178,186.0,Valid,H3.7,488.0,Found,1990.0,27.48333,3.75,"(27.483330, 3.750000)"
1244,Acfer 179,187.0,Valid,L6,163.0,Found,1990.0,27.46667,3.75,"(27.466670, 3.750000)"
1245,Acfer 180,188.0,Valid,H3.9-5,103.0,Found,1990.0,27.6,4.16667,"(27.600000, 4.166670)"
1246,Acfer 181,189.0,Valid,L6,245.0,Found,1990.0,27.66667,4.2,"(27.666670, 4.200000)"
1247,Acfer 182,190.0,Valid,CH3,166.0,Found,1990.0,27.7,4.35,"(27.700000, 4.350000)"
1248,Acfer 183,191.0,Valid,H5,114.0,Found,1990.0,27.58333,4.16667,"(27.583330, 4.166670)"
1249,Acfer 184,192.0,Valid,H5,311.0,Found,1990.0,27.56667,4.01667,"(27.566670, 4.016670)"
1250,Acfer 185,193.0,Valid,LL5,109.0,Found,1990.0,27.53333,3.83333,"(27.533330, 3.833330)"
1251,Acfer 186,194.0,Valid,CR2,315.0,Found,1990.0,27.46667,3.86667,"(27.466670, 3.866670)"
1252,Acfer 187,195.0,Valid,CR2,234.0,Found,1990.0,27.46667,3.9,"(27.466670, 3.900000)"
1253,Acfer 188,196.0,Valid,H3.9/4,252.0,Found,1990.0,27.58333,4.11667,"(27.583330, 4.116670)"
1254,Acfer 189,197.0,Valid,H6,53.0,Found,1990.0,27.6,4.18333,"(27.600000, 4.183330)"
1255,Acfer 190,198.0,Valid,L6,4439.0,Found,1990.0,27.7,4.3,"(27.700000, 4.300000)"
1256,Acfer 191,199.0,Valid,L6,188.0,Found,1990.0,27.7,4.3,"(27.700000, 4.300000)"
1257,Acfer 192,200.0,Valid,H3.9-5,219.0,Found,1990.0,27.65,4.2,"(27.650000, 4.200000)"
1258,Acfer 193,201.0,Valid,LL4-6,157.0,Found,1990.0,27.56667,3.95,"(27.566670, 3.950000)"
1259,Acfer 194,202.0,Valid,H5,361.0,Found,1991.0,27.49944,3.68889,"(27.499440, 3.688890)"
1260,Acfer 195,203.0,Valid,H6,233.0,Found,1991.0,27.52472,3.81139,"(27.524720, 3.811390)"
1261,Acfer 196,204.0,Valid,H5,29.0,Found,1991.0,27.57694,4.03389,"(27.576940, 4.033890)"
1262,Acfer 197,205.0,Valid,L6,115.0,Found,1991.0,27.55583,4.14,"(27.555830, 4.140000)"
1263,Acfer 198,206.0,Valid,H6,267.0,Found,1991.0,27.51694,3.79139,"(27.516940, 3.791390)"
1264,Acfer 199,207.0,Valid,L4,215.0,Found,1991.0,27.48028,3.85139,"(27.480280, 3.851390)"
1265,Acfer 200,208.0,Valid,H3-6,1301.0,Found,1991.0,27.50194,3.92111,"(27.501940, 3.921110)"
1266,Acfer 201,209.0,Valid,L5,55.0,Found,1991.0,27.59222,3.91806,"(27.592220, 3.918060)"
1267,Acfer 202,210.0,Valid,CO3.5,389.0,Found,1991.0,27.50889,4.60167,"(27.508890, 4.601670)"
1268,Acfer 203,211.0,Valid,H5,292.0,Found,1991.0,27.57806,4.36917,"(27.578060, 4.369170)"
1269,Acfer 204,212.0,Valid,H3,64.0,Found,1991.0,27.64639,3.98306,"(27.646390, 3.983060)"
1270,Acfer 205,213.0,Valid,H5,746.0,Found,1991.0,27.7375,4.32806,"(27.737500, 4.328060)"
1271,Acfer 206,214.0,Valid,H5,1229.0,Found,1991.0,27.69083,4.37861,"(27.690830, 4.378610)"
1272,Acfer 207,215.0,Valid,CH3,105.0,Found,1991.0,27.68806,4.37194,"(27.688060, 4.371940)"
1273,Acfer 208,216.0,Valid,LL5,510.0,Found,1991.0,27.50472,3.88194,"(27.504720, 3.881940)"
1274,Acfer 209,217.0,Valid,CR2,475.0,Found,1991.0,27.50472,3.88194,"(27.504720, 3.881940)"
1275,Acfer 210,218.0,Valid,H3.7,720.0,Found,1991.0,27.49722,3.87028,"(27.497220, 3.870280)"
1276,Acfer 211,219.0,Valid,H3.9,1009.0,Found,1991.0,27.46472,3.78167,"(27.464720, 3.781670)"
1277,Acfer 212,220.0,Valid,H5,1340.0,Found,1991.0,27.61278,3.71361,"(27.612780, 3.713610)"
1278,Acfer 213,221.0,Valid,L6,526.0,Found,1991.0,27.68111,4.30694,"(27.681110, 4.306940)"
1279,Acfer 214,222.0,Valid,CH3,612.0,Found,1991.0,27.69,4.37861,"(27.690000, 4.378610)"
1280,Acfer 215,223.0,Valid,L5,107.0,Found,1991.0,27.64028,4.17056,"(27.640280, 4.170560)"
1281,Acfer 216,224.0,Valid,L6,293.0,Found,1991.0,27.59972,4.90361,"(27.599720, 4.903610)"
1282,Acfer 217,225.0,Valid,R3.8-5,174.0,Found,1991.0,27.59444,3.88583,"(27.594440, 3.885830)"
1283,Acfer 218,226.0,Valid,L6,114.0,Found,1991.0,27.54472,3.74306,"(27.544720, 3.743060)"
1284,Acfer 219,227.0,Valid,H6,2611.0,Found,1991.0,27.52139,3.79139,"(27.521390, 3.791390)"
1285,Acfer 220,228.0,Valid,H5,117.0,Found,1991.0,27.52417,3.79694,"(27.524170, 3.796940)"
1286,Acfer 221,229.0,Valid,H5/6,812.0,Found,1991.0,27.5325,3.81361,"(27.532500, 3.813610)"
1287,Acfer 222,230.0,Valid,H5/6,334.0,Found,1991.0,27.54194,3.82778,"(27.541940, 3.827780)"
1288,Acfer 223,231.0,Valid,L/LL6,1398.0,Found,1991.0,27.54194,3.82778,"(27.541940, 3.827780)"
1289,Acfer 224,232.0,Valid,H5/6,85.0,Found,1991.0,27.63889,3.93444,"(27.638890, 3.934440)"
1290,Acfer 225,233.0,Valid,H3,255.0,Found,1991.0,27.64528,3.94389,"(27.645280, 3.943890)"
1291,Acfer 226,234.0,Valid,H5,221.0,Found,1991.0,27.68444,3.99389,"(27.684440, 3.993890)"
1292,Acfer 227,235.0,Valid,H6,78.0,Found,1991.0,27.66861,4.425,"(27.668610, 4.425000)"
1293,Acfer 228,236.0,Valid,L5,2285.0,Found,1991.0,27.57389,4.11972,"(27.573890, 4.119720)"
1294,Acfer 229,237.0,Valid,H5,325.0,Found,1991.0,27.82611,4.24611,"(27.826110, 4.246110)"
1295,Acfer 230,238.0,Valid,H5,69.0,Found,1991.0,27.74056,4.30833,"(27.740560, 4.308330)"
1296,Acfer 231,239.0,Valid,H4/5,218.0,Found,1991.0,27.73472,4.31611,"(27.734720, 4.316110)"
1297,Acfer 232,240.0,Valid,H5,725.0,Found,1991.0,27.73944,4.32833,"(27.739440, 4.328330)"
1298,Acfer 233,241.0,Valid,H5/6,242.0,Found,1991.0,27.71722,4.44806,"(27.717220, 4.448060)"
1299,Acfer 234,242.0,Valid,"Iron, IAB-ung",621.0,Found,1991.0,27.50111,4.09861,"(27.501110, 4.098610)"
1300,Acfer 235,243.0,Valid,H5,461.0,Found,1991.0,27.51889,4.01667,"(27.518890, 4.016670)"
1301,Acfer 236,244.0,Valid,LL6,81.0,Found,1991.0,27.51056,3.89111,"(27.510560, 3.891110)"
1302,Acfer 237,245.0,Valid,H3,673.0,Found,1991.0,27.49167,3.83278,"(27.491670, 3.832780)"
1303,Acfer 238,246.0,Valid,H4/5,311.0,Found,1991.0,27.50361,3.67306,"(27.503610, 3.673060)"
1304,Acfer 239,247.0,Valid,H6,160.0,Found,1991.0,27.48444,3.66639,"(27.484440, 3.666390)"
1305,Acfer 240,248.0,Valid,L6,342.0,Found,1991.0,27.49833,3.69444,"(27.498330, 3.694440)"
1306,Acfer 241,249.0,Valid,L6,86.0,Found,1991.0,27.51583,3.72722,"(27.515830, 3.727220)"
1307,Acfer 242,250.0,Valid,L6,318.0,Found,1991.0,27.52111,3.77333,"(27.521110, 3.773330)"
1308,Acfer 244,252.0,Valid,H6,2045.0,Found,1991.0,27.52472,3.80972,"(27.524720, 3.809720)"
1309,Acfer 245,253.0,Valid,H5,75.0,Found,1991.0,27.56389,3.92639,"(27.563890, 3.926390)"
1310,Acfer 246,254.0,Valid,L6,923.0,Found,1991.0,27.69222,3.32167,"(27.692220, 3.321670)"
1311,Acfer 247,255.0,Valid,L4,60.0,Found,1991.0,27.63611,4.03139,"(27.636110, 4.031390)"
1312,Acfer 248,256.0,Valid,L3.9/4,402.0,Found,1991.0,27.63556,4.02528,"(27.635560, 4.025280)"
1313,Acfer 249,257.0,Valid,H5/6,99.0,Found,1991.0,27.62167,3.95361,"(27.621670, 3.953610)"
1314,Acfer 250,258.0,Valid,H6,382.0,Found,1991.0,27.55139,3.74194,"(27.551390, 3.741940)"
1315,Acfer 251,259.0,Valid,LL5-6,202.0,Found,1991.0,27.50972,3.88056,"(27.509720, 3.880560)"
1316,Acfer 252,260.0,Valid,L6,146.0,Found,1991.0,27.51111,3.88444,"(27.511110, 3.884440)"
1317,Acfer 253,261.0,Valid,LL5-6,47.0,Found,1991.0,27.51361,3.89694,"(27.513610, 3.896940)"
1318,Acfer 254,262.0,Valid,L6,99.0,Found,1991.0,27.52222,3.94694,"(27.522220, 3.946940)"
1319,Acfer 255,263.0,Valid,L6,124.0,Found,1991.0,27.64611,4.39722,"(27.646110, 4.397220)"
1320,Acfer 256,264.0,Valid,H5/6,235.0,Found,1991.0,27.64611,4.39722,"(27.646110, 4.397220)"
1321,Acfer 257,265.0,Valid,H6,75.0,Found,1991.0,27.68528,4.50333,"(27.685280, 4.503330)"
1322,Acfer 258,266.0,Valid,H6,212.0,Found,1991.0,27.67056,4.34611,"(27.670560, 4.346110)"
1323,Acfer 259,267.0,Valid,H3-6,114.0,Found,1991.0,27.52444,3.87361,"(27.524440, 3.873610)"
1324,Acfer 260,268.0,Valid,H5,177.0,Found,1991.0,27.47556,3.71028,"(27.475560, 3.710280)"
1325,Acfer 261,269.0,Valid,L6,73.0,Found,1991.0,27.70917,4.42083,"(27.709170, 4.420830)"
1326,Acfer 262,270.0,Valid,H4,92.0,Found,1991.0,27.67,4.49722,"(27.670000, 4.497220)"
1327,Acfer 263,271.0,Valid,L6,438.0,Found,1991.0,27.69111,4.3375,"(27.691110, 4.337500)"
1328,Acfer 264,272.0,Valid,LL6,243.0,Found,1991.0,27.69472,4.30639,"(27.694720, 4.306390)"
1329,Acfer 265,273.0,Valid,Mesosiderite,83.0,Found,1991.0,27.715,4.19278,"(27.715000, 4.192780)"
1330,Acfer 266,274.0,Valid,L6,518.0,Found,1991.0,27.72722,4.17056,"(27.727220, 4.170560)"
1331,Acfer 267,275.0,Valid,LL5-6,229.0,Found,1991.0,27.51056,3.71306,"(27.510560, 3.713060)"
1332,Acfer 268,276.0,Valid,LL4-6,764.0,Found,1991.0,27.51389,3.87528,"(27.513890, 3.875280)"
1333,Acfer 269,277.0,Valid,LL6,276.0,Found,1991.0,27.51472,3.86556,"(27.514720, 3.865560)"
1334,Acfer 270,278.0,Valid,CR2,298.0,Found,1991.0,27.51861,3.85722,"(27.518610, 3.857220)"
1335,Acfer 271,279.0,Valid,H6,237.0,Found,1991.0,27.56111,4.05556,"(27.561110, 4.055560)"
1336,Acfer 272,280.0,Valid,CV3,63.0,Found,1991.0,27.57028,4.075,"(27.570280, 4.075000)"
1337,Acfer 273,281.0,Valid,H5/6,2110.0,Found,1991.0,27.62194,4.45556,"(27.621940, 4.455560)"
1338,Acfer 274,282.0,Valid,H6,203.0,Found,1991.0,27.63389,4.18722,"(27.633890, 4.187220)"
1339,Acfer 275,283.0,Valid,H5-6,429.0,Found,1991.0,27.63361,4.17306,"(27.633610, 4.173060)"
1340,Acfer 276,284.0,Valid,H5,99.0,Found,1991.0,27.63972,4.14528,"(27.639720, 4.145280)"
1341,Acfer 277,285.0,Valid,Ureilite,41.0,Found,1991.0,27.63917,4.14278,"(27.639170, 4.142780)"
1342,Acfer 278,286.0,Valid,H5,72.0,Found,1991.0,27.63861,4.12722,"(27.638610, 4.127220)"
1343,Acfer 279,287.0,Valid,H5,96.0,Found,1991.0,27.64278,4.06889,"(27.642780, 4.068890)"
1344,Acfer 280,288.0,Valid,L6,177.0,Found,1991.0,27.53528,3.91278,"(27.535280, 3.912780)"
1345,Acfer 281,289.0,Valid,L5,165.0,Found,1991.0,27.54222,3.88444,"(27.542220, 3.884440)"
1346,Acfer 282,290.0,Valid,H6,67.0,Found,1991.0,27.65444,4.27528,"(27.654440, 4.275280)"
1347,Acfer 283,291.0,Valid,H5,187.0,Found,1991.0,27.70056,4.22944,"(27.700560, 4.229440)"
1348,Acfer 284,292.0,Valid,H5,120.0,Found,1991.0,27.70611,4.20583,"(27.706110, 4.205830)"
1349,Acfer 285,293.0,Valid,H4/5,69.0,Found,1991.0,27.63139,4.10722,"(27.631390, 4.107220)"
1350,Acfer 286,294.0,Valid,H6,407.0,Found,1991.0,27.79472,4.16722,"(27.794720, 4.167220)"
1351,Acfer 287,295.0,Valid,E4,59.0,Found,1992.0,27.61667,4.19056,"(27.616670, 4.190560)"
1352,Acfer 288,296.0,Valid,L5,55.0,Found,1992.0,27.59139,3.98806,"(27.591390, 3.988060)"
1353,Acfer 289,297.0,Valid,CR2,76.0,Found,1992.0,27.47417,3.86417,"(27.474170, 3.864170)"
1354,Acfer 290,298.0,Valid,L6,213.0,Found,1992.0,27.54528,4.04861,"(27.545280, 4.048610)"
1355,Acfer 291,299.0,Valid,H6,261.0,Found,1992.0,27.70806,4.24806,"(27.708060, 4.248060)"
1356,Acfer 292,300.0,Valid,H5,432.0,Found,1992.0,27.71861,4.48611,"(27.718610, 4.486110)"
1357,Acfer 293,301.0,Valid,LL6,198.0,Found,1992.0,27.66583,4.19056,"(27.665830, 4.190560)"
1358,Acfer 294,302.0,Valid,H4,457.0,Found,1992.0,27.64972,4.01194,"(27.649720, 4.011940)"
1359,Acfer 295,303.0,Valid,LL6,217.0,Found,1992.0,27.48333,3.91556,"(27.483330, 3.915560)"
1360,Acfer 296,304.0,Valid,LL5-6,121.0,Found,1992.0,27.58278,4.0,"(27.582780, 4.000000)"
1361,Acfer 297,305.0,Valid,L6,43.0,Found,1992.0,27.63361,4.04139,"(27.633610, 4.041390)"
1362,Acfer 298,306.0,Valid,L6,2000.0,Found,1992.0,27.70917,4.17444,"(27.709170, 4.174440)"
1363,Acfer 299,307.0,Valid,LL4,180.0,Found,1992.0,27.6825,4.42028,"(27.682500, 4.420280)"
1364,Acfer 300,308.0,Valid,H6,270.0,Found,1992.0,27.59028,4.15194,"(27.590280, 4.151940)"
1365,Acfer 301,309.0,Valid,H4,162.0,Found,1992.0,27.52722,3.89806,"(27.527220, 3.898060)"
1366,Acfer 302,310.0,Valid,H5,95.0,Found,1992.0,27.58694,3.96417,"(27.586940, 3.964170)"
1367,Acfer 303,311.0,Valid,H5/6,83.0,Found,1992.0,27.60222,3.98528,"(27.602220, 3.985280)"
1368,Acfer 304,312.0,Valid,H6,60.0,Found,1992.0,27.62361,4.02556,"(27.623610, 4.025560)"
1369,Acfer 305,313.0,Valid,L6,369.0,Found,1992.0,27.68722,4.18361,"(27.687220, 4.183610)"
1370,Acfer 306,314.0,Valid,L6,129.0,Found,1992.0,27.42889,3.82,"(27.428890, 3.820000)"
1371,Acfer 307,315.0,Valid,L5,520.0,Found,1992.0,27.49083,3.89778,"(27.490830, 3.897780)"
1372,Acfer 308,316.0,Valid,H5,74.0,Found,1992.0,27.55972,4.01028,"(27.559720, 4.010280)"
1373,Acfer 309,317.0,Valid,L6,185.0,Found,1992.0,27.64556,4.20444,"(27.645560, 4.204440)"
1374,Acfer 310,318.0,Valid,H6,169.0,Found,1992.0,27.68361,4.25306,"(27.683610, 4.253060)"
1375,Acfer 311,319.0,Valid,CR2,120.0,Found,1992.0,27.50806,3.84417,"(27.508060, 3.844170)"
1376,Acfer 312,320.0,Valid,L5,364.0,Found,1992.0,27.57861,3.96889,"(27.578610, 3.968890)"
1377,Acfer 313,321.0,Valid,H5,78.0,Found,1992.0,27.60056,3.99556,"(27.600560, 3.995560)"
1378,Acfer 314,322.0,Valid,H6,169.0,Found,1992.0,27.66389,4.09806,"(27.663890, 4.098060)"
1379,Acfer 315,323.0,Valid,L/LL6,506.0,Found,1992.0,27.69972,4.18611,"(27.699720, 4.186110)"
1380,Acfer 316,324.0,Valid,H6,126.0,Found,1992.0,27.6875,4.245,"(27.687500, 4.245000)"
1381,Acfer 317,325.0,Valid,H5,878.0,Found,1992.0,27.59278,4.40139,"(27.592780, 4.401390)"
1382,Acfer 318,326.0,Valid,H5,292.0,Found,1992.0,27.55028,3.99806,"(27.550280, 3.998060)"
1383,Acfer 319,327.0,Valid,L6,2393.0,Found,1992.0,27.55194,3.81611,"(27.551940, 3.816110)"
1384,Acfer 320,328.0,Valid,H5,167.0,Found,1992.0,27.46056,3.88806,"(27.460560, 3.888060)"
1385,Acfer 321,329.0,Valid,H5,157.0,Found,2001.0,27.5455,4.06117,"(27.545500, 4.061170)"
1386,Acfer 322,330.0,Valid,L5,25.0,Found,2001.0,27.55917,4.093,"(27.559170, 4.093000)"
1387,Acfer 323,331.0,Valid,LL5,117.0,Found,2001.0,27.503,3.8795,"(27.503000, 3.879500)"
1388,Acfer 324,30428.0,Valid,CR2,69.0,Found,2001.0,27.50083,3.86983,"(27.500830, 3.869830)"
1389,Acfer 325,332.0,Valid,LL6,32.0,Found,1989.0,27.5,3.61667,"(27.500000, 3.616670)"
1390,Acfer 326,333.0,Valid,L6,139.0,Found,1989.0,27.5,3.61667,"(27.500000, 3.616670)"
1391,Acfer 327,334.0,Valid,H5,745.22,Found,2001.0,27.73333,4.43333,"(27.733330, 4.433330)"
1392,Acfer 328,335.0,Valid,CV3,180.07,Found,2001.0,27.73333,4.21667,"(27.733330, 4.216670)"
1393,Acfer 329,336.0,Valid,L4/5,30000.0,Found,2001.0,27.58333,4.1,"(27.583330, 4.100000)"
1394,Acfer 330,337.0,Valid,L6,490.0,Found,2001.0,27.65,4.03333,"(27.650000, 4.033330)"
1395,Acfer 331,338.0,Valid,CM2,750.0,Found,2001.0,27.58333,4.01667,"(27.583330, 4.016670)"
1396,Acfer 332,339.0,Valid,CO3,115.02,Found,2001.0,27.73333,4.13333,"(27.733330, 4.133330)"
1397,Acfer 333,340.0,Valid,CO3,489.0,Found,2001.0,27.56667,4.06667,"(27.566670, 4.066670)"
1398,Acfer 334,341.0,Valid,L6,211.25,Found,2002.0,27.65,4.38333,"(27.650000, 4.383330)"
1399,Acfer 335,342.0,Valid,H4,261.0,Found,2002.0,27.73333,4.43333,"(27.733330, 4.433330)"
1400,Acfer 336,343.0,Valid,L3.8,19400.0,Found,2002.0,27.61667,4.06667,"(27.616670, 4.066670)"
1401,Acfer 337,344.0,Valid,L3.8,360.0,Found,2002.0,27.68333,4.26667,"(27.683330, 4.266670)"
1402,Acfer 338,345.0,Valid,H6,377.6,Found,2002.0,27.71667,4.26667,"(27.716670, 4.266670)"
1403,Acfer 339,346.0,Valid,H5,400.0,Found,2002.0,27.55,4.2,"(27.550000, 4.200000)"
1404,Acfer 340,347.0,Valid,L5,173.15,Found,2002.0,27.58333,4.3,"(27.583330, 4.300000)"
1405,Acfer 341,32781.0,Valid,L3,132.0,Found,2002.0,27.46667,3.83333,"(27.466670, 3.833330)"
1406,Acfer 342,348.0,Valid,L6,1276.0,Found,2002.0,27.59056,4.66278,"(27.590560, 4.662780)"
1407,Acfer 343,349.0,Valid,H3-5,140.0,Found,2002.0,27.619722,4.265,"(27.619722, 4.265000)"
1408,Acfer 344,350.0,Valid,H3,410.0,Found,2002.0,27.73333,4.19833,"(27.733330, 4.198330)"
1409,Acfer 345,351.0,Valid,LL5,53.0,Found,2002.0,27.46472,3.81417,"(27.464720, 3.814170)"
1410,Acfer 346,352.0,Valid,LL6,546.0,Found,2002.0,27.59056,4.66278,"(27.590560, 4.662780)"
1411,Acfer 347,353.0,Valid,L3,1165.0,Found,2001.0,27.68333,4.3,"(27.683330, 4.300000)"
1412,Acfer 348,354.0,Valid,L5,8750.0,Found,2001.0,27.97933,4.27817,"(27.979330, 4.278170)"
1413,Acfer 349,355.0,Valid,H6,298.0,Found,2001.0,27.84067,4.31433,"(27.840670, 4.314330)"
1414,Acfer 350,356.0,Valid,H4,128.0,Found,2001.0,27.672,4.52633,"(27.672000, 4.526330)"
1415,Acfer 351,357.0,Valid,L6,211.0,Found,2001.0,27.7,4.13333,"(27.700000, 4.133330)"
1416,Acfer 352,358.0,Valid,L5,873.0,Found,2001.0,27.76667,4.01667,"(27.766670, 4.016670)"
1417,Acfer 353,359.0,Valid,Eucrite-cm,11935.0,Found,2001.0,27.48917,3.89,"(27.489170, 3.890000)"
1418,Acfer 354,360.0,Valid,LL5,252.0,Found,2001.0,27.5005,3.88233,"(27.500500, 3.882330)"
1419,Acfer 355,361.0,Valid,LL5,161.0,Found,2002.0,27.58967,3.781,"(27.589670, 3.781000)"
1420,Acfer 356,362.0,Valid,EL6,120.0,Found,2002.0,27.61233,4.5285,"(27.612330, 4.528500)"
1421,Acfer 357,363.0,Valid,LL5,62.0,Found,2001.0,27.50083,4.87467,"(27.500830, 4.874670)"
1422,Acfer 358,364.0,Valid,H6,70.0,Found,2002.0,27.76667,4.41667,"(27.766670, 4.416670)"
1423,Acfer 359,365.0,Valid,H6,67.0,Found,2002.0,27.7,4.48333,"(27.700000, 4.483330)"
1424,Acfer 360,30430.0,Valid,Ureilite,68.0,Found,2002.0,27.48333,3.76667,"(27.483330, 3.766670)"
1425,Acfer 361,366.0,Valid,H4,138.0,Found,2002.0,27.42958,3.87135,"(27.429580, 3.871350)"
1426,Acfer 362,367.0,Valid,H5,242.8,Found,2002.0,27.4778,3.70165,"(27.477800, 3.701650)"
1427,Acfer 363,368.0,Valid,LL4,389.9,Found,2002.0,27.58163,4.29388,"(27.581630, 4.293880)"
1428,Acfer 364,30431.0,Valid,LL6,656.0,Found,2002.0,27.7,4.51667,"(27.700000, 4.516670)"
1429,Acfer 365,30432.0,Valid,L5,1456.0,Found,2002.0,27.60933,3.93567,"(27.609330, 3.935670)"
1430,Acfer 366,32782.0,Valid,CH3,1456.0,Found,2002.0,26.60933,3.93567,"(26.609330, 3.935670)"
1431,Acfer 367,30433.0,Valid,H5,410.0,Found,2002.0,27.68433,4.42917,"(27.684330, 4.429170)"
1432,Acfer 368,30434.0,Valid,H4,126.0,Found,2002.0,27.68883,4.386,"(27.688830, 4.386000)"
1433,Acfer 369,30435.0,Valid,H4,122.0,Found,2002.0,27.667,4.64833,"(27.667000, 4.648330)"
1434,Acfer 370,32783.0,Valid,Chondrite-ung,129.0,Found,2002.0,27.6725,4.35667,"(27.672500, 4.356670)"
1435,Acfer 371,34017.0,Valid,L5,9608.0,Found,2002.0,27.67817,4.46533,"(27.678170, 4.465330)"
1436,Acfer 372,30436.0,Valid,LL6,238.0,Found,2002.0,26.61167,3.887,"(26.611670, 3.887000)"
1437,Acfer 373,30437.0,Valid,H5,128.0,Found,2002.0,26.62583,3.94433,"(26.625830, 3.944330)"
1438,Acfer 374,32784.0,Valid,CO3,118.0,Found,2002.0,26.60867,4.053,"(26.608670, 4.053000)"
1439,Acfer 375,30438.0,Valid,LL6,495.0,Found,2002.0,27.5085,3.76383,"(27.508500, 3.763830)"
1440,Acfer 376,30439.0,Valid,H6,132.0,Found,2002.0,27.6395,3.935,"(27.639500, 3.935000)"
1441,Acfer 377,30440.0,Valid,L4,132.0,Found,2002.0,27.6625,3.97683,"(27.662500, 3.976830)"
1442,Acfer 378,35480.0,Valid,LL6,1320.0,Found,2003.0,27.4,3.75,"(27.400000, 3.750000)"
1443,Acfer 379,35338.0,Valid,H4,14764.0,Found,2004.0,27.4114,3.70467,"(27.411400, 3.704670)"
1444,Acfer 380,35481.0,Valid,H5,849.0,Found,2002.0,27.76667,4.41667,"(27.766670, 4.416670)"
1445,Acfer 381,35482.0,Valid,L6,292.0,Found,2002.0,27.7,4.45,"(27.700000, 4.450000)"
1446,Acfer 382,35483.0,Valid,H5,101.0,Found,2002.0,27.63333,3.93333,"(27.633330, 3.933330)"
1447,Acfer 386,44851.0,Valid,L5,200.0,Found,2004.0,27.36017,3.7,"(27.360170, 3.700000)"
1448,Acfer 387,44852.0,Valid,H4-6,177.0,Found,2004.0,27.558,4.015,"(27.558000, 4.015000)"
1449,Acfer 388,44853.0,Valid,H4,1072.0,Found,2004.0,27.61667,3.86667,"(27.616670, 3.866670)"
1450,Acfer 389,44854.0,Valid,H5,397.0,Found,2004.0,27.504,3.68167,"(27.504000, 3.681670)"
1451,Acfer 390,44855.0,Valid,H4,578.0,Found,2004.0,27.5025,3.693,"(27.502500, 3.693000)"
1452,Acfer 391,53622.0,Valid,H4,388.0,Found,2004.0,27.59617,4.172,"(27.596170, 4.172000)"
1453,Acfer 392,54591.0,Valid,H~5,74.0,Found,1997.0,27.51667,3.86667,"(27.516670, 3.866670)"
1454,Acfer 393,54592.0,Valid,H~6,74.0,Found,1997.0,27.58333,4.03333,"(27.583330, 4.033330)"
1455,Acfer 394,53886.0,Valid,CR2,364.0,Found,2001.0,27.51867,3.88033,"(27.518670, 3.880330)"
1456,Acfer 395,53887.0,Valid,CR2,394.0,Found,2001.0,27.50917,3.88767,"(27.509170, 3.887670)"
1457,Acfer 396,53888.0,Valid,CR2,148.0,Found,2001.0,27.512,3.89783,"(27.512000, 3.897830)"
1458,Acfer 397,53889.0,Valid,CR2,105.0,Found,2001.0,27.509,3.89583,"(27.509000, 3.895830)"
1459,Acfer 398,55262.0,Valid,CR2,97.0,Found,2001.0,27.50217,3.86083,"(27.502170, 3.860830)"
1460,Acfer 399,55263.0,Valid,CR2,89.0,Found,2001.0,27.50267,3.8725,"(27.502670, 3.872500)"
1461,Acfer 400,55264.0,Valid,CR2,101.0,Found,2001.0,27.50083,3.86617,"(27.500830, 3.866170)"
1462,Acfer 401,56305.0,Valid,L5,9.0,Found,2002.0,27.68917,4.44267,"(27.689170, 4.442670)"
1469,Adam Talha,44856.0,Valid,LL3.2,259.3,Found,2005.0,22.9935,-10.15367,"(22.993500, -10.153670)"
1471,ad-Dahbubah,376.0,Valid,H5,90000.0,Found,1961.0,19.83333,51.25,"(19.833330, 51.250000)"
1474,Adrar 001,381.0,Valid,H4/5,1917.0,Found,1990.0,28.05,0.16667,"(28.050000, 0.166670)"
1475,Adrar 002,382.0,Valid,L5,407.0,Found,1990.0,27.81667,0.13333,"(27.816670, 0.133330)"
1476,Adrar 003,383.0,Valid,L/LL3.10,287.0,Found,1990.0,27.13333,0.2,"(27.133330, 0.200000)"
1477,Adrar Bous,384.0,Valid,EL5,360.0,Found,2001.0,20.5,9.0,"(20.500000, 9.000000)"
1478,Adrar Chiriet,44703.0,Valid,L6,926.0,Found,2003.0,19.64008,9.35545,"(19.640080, 9.355450)"
1479,Adrar Madet,385.0,Valid,H5/6,1113.0,Found,1997.0,18.5,10.4,"(18.500000, 10.400000)"
1480,Adrar Madet 002,386.0,Valid,LL3,2200.0,Found,2002.0,18.61042,10.4941,"(18.610420, 10.494100)"
1481,Adrar Yaouelt,387.0,Valid,H5,2730.0,Found,2002.0,17.67987,10.03503,"(17.679870, 10.035030)"
1485,Agoudal,57354.0,Valid,"Iron, IIAB",100000.0,Found,2000.0,31.98457,-5.51528,"(31.984570, -5.515280)"
1486,Agoult,395.0,Valid,Eucrite,82.0,Found,2000.0,30.55,-4.9,"(30.550000, -4.900000)"
1489,Aguemour 001,400.0,Valid,H5,896.0,Found,1990.0,26.96667,4.45,"(26.966670, 4.450000)"
1490,Aguemour 002,401.0,Valid,L6,236.0,Found,1990.0,26.96667,4.4,"(26.966670, 4.400000)"
1491,Aguemour 003,402.0,Valid,L6,809.0,Found,1990.0,27.36667,4.5,"(27.366670, 4.500000)"
1492,Aguemour 004,403.0,Valid,H5,1137.0,Found,1990.0,27.33333,4.5,"(27.333330, 4.500000)"
1493,Aguemour 005,404.0,Valid,H5,859.0,Found,1991.0,27.43583,4.63861,"(27.435830, 4.638610)"
1494,Aguemour 006,405.0,Valid,L6,435.0,Found,1992.0,27.57639,4.52528,"(27.576390, 4.525280)"
1495,Aguemour 007,406.0,Valid,H4,334.0,Found,1992.0,27.50778,4.60167,"(27.507780, 4.601670)"
1496,Aguemour 008,407.0,Valid,L4,79.0,Found,1992.0,27.47889,4.19806,"(27.478890, 4.198060)"
1497,Aguemour 009,408.0,Valid,L3.8,1446.0,Found,1992.0,27.42861,4.12417,"(27.428610, 4.124170)"
1498,Aguemour 010,409.0,Valid,H5,367.0,Found,1993.0,27.36056,4.94472,"(27.360560, 4.944720)"
1499,Aguemour 011,410.0,Valid,H4,207.0,Found,1993.0,27.35028,4.2025,"(27.350280, 4.202500)"
1500,Aguemour 012,411.0,Valid,H5,347.0,Found,1993.0,27.5175,4.19111,"(27.517500, 4.191110)"
1501,Aguemour 013,412.0,Valid,L5,364.0,Found,1993.0,27.56972,4.52556,"(27.569720, 4.525560)"
1502,Aguemour 014,413.0,Valid,L5,167.0,Found,1993.0,27.57806,4.3225,"(27.578060, 4.322500)"
1503,Aguemour 015,414.0,Valid,L4,1106.0,Found,1993.0,27.50972,4.16111,"(27.509720, 4.161110)"
1504,Aguemour 016,415.0,Valid,L5,177.0,Found,1993.0,27.59167,4.31694,"(27.591670, 4.316940)"
1505,Aguemour 017,416.0,Valid,L6,1000.0,Found,2001.0,27.4,4.35,"(27.400000, 4.350000)"
1509,Akhricha,428.0,Valid,H,1760.0,Found,1968.0,28.4625,1.025,"(28.462500, 1.025000)"
1513,Al Alamayn,35484.0,Valid,H5,13.31,Found,2005.0,30.70952,28.9698,"(30.709520, 28.969800)"
1514,Al Haggounia 001,44857.0,Valid,Aubrite,3000000.0,Found,2006.0,27.5,-12.5,"(27.500000, -12.500000)"
1515,Al Huqf 001,434.0,Valid,L4,41.5,Found,2000.0,19.42,57.18833,"(19.420000, 57.188330)"
1516,Al Huqf 002,435.0,Valid,H5,81.4,Found,2000.0,19.27167,57.38667,"(19.271670, 57.386670)"
1517,Al Huqf 003,436.0,Valid,L4,115.42,Found,2002.0,19.50695,57.11952,"(19.506950, 57.119520)"
1518,Al Huqf 004,437.0,Valid,L5,260.22,Found,2002.0,19.54482,57.09807,"(19.544820, 57.098070)"
1519,Al Huqf 005,438.0,Valid,L6,763.29,Found,2002.0,19.84057,57.00848,"(19.840570, 57.008480)"
1520,Al Huqf 006,439.0,Valid,L6,1861.21,Found,2002.0,19.84067,57.00842,"(19.840670, 57.008420)"
1521,Al Huqf 007,440.0,Valid,L5,1042.7,Found,2002.0,19.84128,57.00953,"(19.841280, 57.009530)"
1522,Al Huqf 008,441.0,Valid,L6,1074.3,Found,2002.0,19.84203,57.00747,"(19.842030, 57.007470)"
1523,Al Huqf 009,442.0,Valid,H4,39.83,Found,2002.0,19.8423,57.00013,"(19.842300, 57.000130)"
1524,Al Huqf 010,443.0,Valid,L6,41539.3,Found,2002.0,19.86785,57.0028,"(19.867850, 57.002800)"
1525,Al Huqf 011,444.0,Valid,L6,8056.0,Found,2002.0,19.86607,57.0032,"(19.866070, 57.003200)"
1526,Al Huqf 012,445.0,Valid,L6,402.75,Found,2003.0,19.80252,57.32137,"(19.802520, 57.321370)"
1527,Al Huqf 050,35485.0,Valid,H4,1066.2,Found,2002.0,19.60308,57.03332,"(19.603080, 57.033320)"
1528,Al Huqf 051,35486.0,Valid,L6,402.75,Found,2003.0,19.80252,57.32137,"(19.802520, 57.321370)"
1529,Al Huqf 052,45822.0,Valid,H~5,1319.4,Found,2001.0,19.65675,57.0433,"(19.656750, 57.043300)"
1530,Al Huqf 053,45823.0,Valid,H~5,854.7,Found,2001.0,19.61287,57.27038,"(19.612870, 57.270380)"
1531,Al Huqf 054,45824.0,Valid,L~6,2936.5,Found,2001.0,19.61612,57.2698,"(19.616120, 57.269800)"
1532,Al Huqf 055,45825.0,Valid,H4,1865.6,Found,2001.0,19.64073,57.28857,"(19.640730, 57.288570)"
1533,Al Huqf 056,45826.0,Valid,H5,124.0,Found,2001.0,19.66453,57.3334,"(19.664530, 57.333400)"
1534,Al Huqf 057,45827.0,Valid,H5,105.3,Found,2001.0,19.53112,57.08427,"(19.531120, 57.084270)"
1535,Al Huqf 058,45828.0,Valid,L~6,97.7,Found,2001.0,19.3421,57.1693,"(19.342100, 57.169300)"
1536,Al Huqf 059,45829.0,Valid,L~3,362.7,Found,2001.0,19.31468,57.27343,"(19.314680, 57.273430)"
1537,Al Huqf 060,45830.0,Valid,L~6,913.1,Found,2001.0,19.40518,57.26818,"(19.405180, 57.268180)"
1538,Al Huqf 062,45831.0,Valid,H~4,50.7,Found,2001.0,19.40772,57.29878,"(19.407720, 57.298780)"
1539,Al Huqf 063,45832.0,Valid,L6,591.8,Found,2006.0,19.44533,57.02345,"(19.445330, 57.023450)"
1540,Al Huqf 064,48536.0,Valid,H4,12834.0,Found,2002.0,19.40412,57.27497,"(19.404120, 57.274970)"
1541,Al Huqf 065,48537.0,Valid,L6,2084.16,Found,2007.0,19.32092,57.22977,"(19.320920, 57.229770)"
1542,Al Huqf 066,48538.0,Valid,L4,150.057,Found,2007.0,19.51053,57.1292,"(19.510530, 57.129200)"
1543,Al Huqf 067,51921.0,Valid,H4,61.6,Found,2009.0,19.22597,57.54063,"(19.225970, 57.540630)"
1544,Al Huqf 068,51922.0,Valid,L3,165.4,Found,2009.0,19.14025,57.58427,"(19.140250, 57.584270)"
1545,Al Huqf 069,51923.0,Valid,H4/5,250.5,Found,2009.0,19.26795,57.13412,"(19.267950, 57.134120)"
1546,Al Huqf 070,51937.0,Valid,L4,2632.8,Found,2009.0,19.18798,57.10978,"(19.187980, 57.109780)"
1547,Al Huwaysah 001,55403.0,Valid,LL6,3150.5,Found,2009.0,22.80487,55.32742,"(22.804870, 55.327420)"
1548,Al Huwaysah 002,55404.0,Valid,LL6,690.5,Found,2009.0,22.79853,55.31673,"(22.798530, 55.316730)"
1549,Al Huwaysah 003,55405.0,Valid,L4-6,273.05,Found,2010.0,22.74862,55.37323,"(22.748620, 55.373230)"
1550,Al Huwaysah 004,55406.0,Valid,H5,141.51,Found,2010.0,22.74733,55.39522,"(22.747330, 55.395220)"
1551,Al Huwaysah 005,55636.0,Valid,L(LL)3.5-3.7,1228.1,Found,2010.0,22.73342,55.33122,"(22.733420, 55.331220)"
1552,Al Huwaysah 006,55407.0,Valid,L6,16.41,Found,2010.0,22.73743,55.3191,"(22.737430, 55.319100)"
1553,Al Huwaysah 007,55408.0,Valid,L6,1.56,Found,2010.0,22.73393,55.3204,"(22.733930, 55.320400)"
1554,Al Huwaysah 008,55409.0,Valid,H4,356.2,Found,2010.0,22.73797,55.32125,"(22.737970, 55.321250)"
1555,Al Huwaysah 009,55410.0,Valid,H6,3407.8,Found,2010.0,22.75747,55.41402,"(22.757470, 55.414020)"
1556,Al Huwaysah 010,55637.0,Valid,Achondrite-ung,1411.8,Found,2010.0,22.74868,55.47218,"(22.748680, 55.472180)"
1557,Al Huwaysah 011,55411.0,Valid,L4-5,112.76,Found,2010.0,22.75978,55.3908,"(22.759780, 55.390800)"
1558,Al Huwaysah 012,55412.0,Valid,H5,4694.9,Found,2010.0,22.67752,55.34027,"(22.677520, 55.340270)"
1559,Al Huwaysah 013,56408.0,Valid,H6,55.51,Found,2010.0,22.68423,55.33652,"(22.684230, 55.336520)"
1560,Al Huwaysah 014,55413.0,Valid,H6,45.52,Found,2010.0,22.68598,55.32092,"(22.685980, 55.320920)"
1561,Al Huwaysah 015,56409.0,Valid,H6,35.3,Found,2010.0,22.68922,55.32087,"(22.689220, 55.320870)"
1562,Al Huwaysah 016,55414.0,Valid,H5,1330.9,Found,2010.0,22.69813,55.3336,"(22.698130, 55.333600)"
1563,Al Huwaysah 017,55415.0,Valid,L6,439.58,Found,2010.0,22.73852,55.36247,"(22.738520, 55.362470)"
1576,al-Ghanim (iron),468.0,Valid,"Iron, IIIAB",500.0,Found,1960.0,19.83333,54.08333,"(19.833330, 54.083330)"
1577,al-Ghanim (stone),469.0,Valid,L6,3755.0,Found,1960.0,19.7,53.96667,"(19.700000, 53.966670)"
1581,al-Jimshan,473.0,Valid,H4,11450.0,Found,1955.0,20.7,52.83333,"(20.700000, 52.833330)"
1584,Alkhamasin,475.0,Valid,"Iron, IIAB",1200000.0,Found,1973.0,20.6,44.88333,"(20.600000, 44.883330)"
3327,Alnif,2282.0,Valid,H5,8000.0,Found,1992.0,30.66667,-5.16667,"(30.666670, -5.166670)"
3331,Amadror 001,2289.0,Valid,H4-5,239.0,Found,1991.0,24.94778,6.94306,"(24.947780, 6.943060)"
3339,Anoual,45975.0,Valid,Lunar,5.92,Found,2006.0,32.73458,-2.95797,"(32.734580, -2.957970)"
3347,Aoufous,2314.0,Valid,Eucrite-mmict,195.0,Found,2000.0,31.66667,-4.06667,"(31.666670, -4.066670)"
3357,Areshima,2330.0,Valid,LL3.7,114.3,Found,1999.0,18.21233,10.17767,"(18.212330, 10.177670)"
3362,Arlit,30441.0,Valid,H5,20.1,Found,2002.0,18.673,7.34225,"(18.673000, 7.342250)"
3367,ar-Rakhbah,2338.0,Valid,Iron,462.0,Found,1955.0,20.6,52.5,"(20.600000, 52.500000)"
3370,Asab,2343.0,Valid,H5,1530.0,Found,1999.0,-25.43333,17.91667,"(-25.433330, 17.916670)"
3374,ash-Shalfah,2350.0,Valid,L4,935.0,Found,1961.0,21.875,49.71944,"(21.875000, 49.719440)"
3375,Ashuwairif 001,51563.0,Valid,H4,14566.0,Found,2008.0,29.35944,14.25528,"(29.359440, 14.255280)"
3376,Ashuwairif 002,51564.0,Valid,L5/6,11953.0,Found,2008.0,29.37972,14.26972,"(29.379720, 14.269720)"
3377,Ashuwairif 003,53616.0,Valid,H4,2900.0,Found,2008.0,29.35833,14.24833,"(29.358330, 14.248330)"
3378,Ashuwairif 004,53630.0,Valid,L6,15750.0,Found,2008.0,29.36583,14.27611,"(29.365830, 14.276110)"
3379,Ashuwairif 005,56099.0,Valid,H4,335.0,Found,2010.0,29.3945,14.29233,"(29.394500, 14.292330)"
3381,Assamakka,53892.0,Valid,"Iron, IVA-an",4400.0,Found,2002.0,19.26667,5.91667,"(19.266670, 5.916670)"
3382,as-Su'aydan,2354.0,Valid,L5,5855.0,Found,1960.0,21.25417,55.305,"(21.254170, 55.305000)"
4892,Aswan,4882.0,Valid,"Iron, IAB-ung",12000.0,Found,1955.0,23.98611,32.62361,"(23.986110, 32.623610)"
4904,Aybut 001,4912.0,Valid,H6,442.26,Found,2002.0,17.75793,53.99032,"(17.757930, 53.990320)"
4954,Bechar 001,4988.0,Valid,L6,39000.0,Found,1998.0,30.83333,-3.33333,"(30.833330, -3.333330)"
4955,Bechar 002,4989.0,Valid,H6,12000.0,Found,1998.0,30.83333,-3.33333,"(30.833330, -3.333330)"
4968,Bellsbank,5006.0,Valid,"Iron, IIG",38000.0,Found,1955.0,-28.08333,24.08333,"(-28.083330, 24.083330)"
4971,Ben Kesbes 001,5010.0,Valid,H5,177.0,Found,1991.0,30.36194,5.30083,"(30.361940, 5.300830)"
4978,Beni Semguine,5019.0,Valid,H5-an,18.0,Found,1998.0,30.16667,-5.66667,"(30.166670, -5.666670)"
5001,Bir Hadi,5053.0,Valid,H5,855.0,Found,1958.0,19.41667,51.03333,"(19.416670, 51.033330)"
5002,Bir Rebaa,5054.0,Valid,H6,7200.0,Found,1993.0,31.66667,8.41667,"(31.666670, 8.416670)"
5003,Bi'r Tazit,48983.0,Valid,CK6,46.0,Found,1998.0,25.57117,12.37117,"(25.571170, 12.371170)"
5004,Bir Zar 001,48904.0,Valid,H6,627.0,Found,2008.0,31.481,9.84069,"(31.481000, 9.840690)"
5005,Bir Zar 002,48905.0,Valid,L4/5,331.0,Found,2008.0,31.93833,10.28403,"(31.938330, 10.284030)"
5006,Bir Zar 003,48906.0,Valid,H3,39.0,Found,2008.0,31.49972,9.87722,"(31.499720, 9.877220)"
5007,Bir Zar 004,48907.0,Valid,H6,19.0,Found,2008.0,31.87164,10.19361,"(31.871640, 10.193610)"
5008,Bir Zar 005,48908.0,Valid,H4,17.0,Found,2008.0,31.89689,10.19572,"(31.896890, 10.195720)"
5009,Bir Zar 006,48909.0,Valid,H6,21.0,Found,2008.0,31.89831,10.19528,"(31.898310, 10.195280)"
5010,Bir Zar 007,48910.0,Valid,L6,5.2,Found,2008.0,31.92181,10.1875,"(31.921810, 10.187500)"
5011,Bir Zar 008,48911.0,Valid,H6,200.0,Found,2008.0,31.92644,10.18961,"(31.926440, 10.189610)"
5012,Bir Zar 009,48912.0,Valid,H5-6,21.0,Found,2008.0,31.92644,10.18961,"(31.926440, 10.189610)"
5066,Bou Azarif,53812.0,Valid,H5,100000.0,Found,2010.0,31.15643,-5.15262,"(31.156430, -5.152620)"
5067,Bou Hadid,5118.0,Valid,L,374.0,Found,1969.0,28.3125,0.23333,"(28.312500, 0.233330)"
5068,Bou Kra,5119.0,Valid,H6,130.0,Found,2001.0,26.6325,-12.81025,"(26.632500, -12.810250)"
5069,Bou Kra 002,57216.0,Valid,L5,606.0,Found,2010.0,26.74853,-12.70978,"(26.748530, -12.709780)"
5070,Bou Kra 003,57217.0,Valid,L6,50.0,Found,2010.0,26.81089,-12.71864,"(26.810890, -12.718640)"
5071,Bou Kra 004,57347.0,Valid,Eucrite-mmict,272.75,Found,2010.0,26.707,-12.759,"(26.707000, -12.759000)"
5072,Bou Kra 005,57348.0,Valid,CM2,31.14,Found,2010.0,26.819,-12.724,"(26.819000, -12.724000)"
5073,Bouanane,52888.0,Valid,L6,1395.0,Found,2009.0,31.98333,-3.2,"(31.983330, -3.200000)"
5075,Bouri,47701.0,Valid,H4,9100.0,Found,1996.0,10.26667,40.56667,"(10.266670, 40.566670)"
5078,Bowden,5122.0,Valid,H5,603.0,Found,1907.0,-33.0,26.4,"(-33.000000, 26.400000)"
5094,Britstown,5144.0,Valid,"Iron, IAB-ung",544.0,Found,1910.0,-30.58333,23.55,"(-30.583330, 23.550000)"
5119,Bur-Abor,5166.0,Valid,"Iron, IIIAB",290000.0,Found,1997.0,3.98333,41.65,"(3.983330, 41.650000)"
5130,Bushman Land,5179.0,Valid,"Iron, IVA",3000.0,Found,1933.0,-30.0,20.0,"(-30.000000, 20.000000)"
5226,Cape of Good Hope,5261.0,Valid,"Iron, IVB",136000.0,Found,1793.0,-33.5,26.0,"(-33.500000, 26.000000)"
5229,Capot Rey,30449.0,Valid,H5,38000.0,Found,2004.0,20.12593,10.2056,"(20.125930, 10.205600)"
5317,Chinguetti,5354.0,Valid,Mesosiderite-B1,4050.0,Found,1920.0,20.25,-12.68333,"(20.250000, -12.683330)"
5497,Dar al Gani 031,5547.0,Valid,H5/6,213.0,Found,1995.0,27.18717,16.189,"(27.187170, 16.189000)"
5507,Daoura,5516.0,Valid,L4,35.0,Found,1952.0,29.58333,-3.75,"(29.583330, -3.750000)"
5508,Dar al Gani 001,5517.0,Valid,LL6,213.0,Found,1995.0,27.11767,16.0745,"(27.117670, 16.074500)"
5509,Dar al Gani 002,5518.0,Valid,H6,5105.0,Found,1995.0,27.1255,16.05817,"(27.125500, 16.058170)"
5510,Dar al Gani 003,5519.0,Valid,H6,2020.0,Found,1995.0,27.12633,16.03067,"(27.126330, 16.030670)"
5511,Dar al Gani 004,5520.0,Valid,H6,237.0,Found,1995.0,27.155,15.95833,"(27.155000, 15.958330)"
5512,Dar al Gani 005,5521.0,Valid,CO3,1932.0,Found,1995.0,27.1565,15.9525,"(27.156500, 15.952500)"
5513,Dar al Gani 006,5522.0,Valid,CO3,3130.0,Found,1995.0,27.16983,15.9255,"(27.169830, 15.925500)"
5514,Dar al Gani 007,5523.0,Valid,H5/6,331.0,Found,1995.0,27.16233,16.09533,"(27.162330, 16.095330)"
5515,Dar al Gani 008,5524.0,Valid,L6,1925.0,Found,1995.0,27.15833,16.11467,"(27.158330, 16.114670)"
5516,Dar al Gani 009,5525.0,Valid,H6,2235.0,Found,1995.0,27.15267,16.1565,"(27.152670, 16.156500)"
5517,Dar al Gani 010,5526.0,Valid,H5/6,72.0,Found,1995.0,27.15217,16.17317,"(27.152170, 16.173170)"
5518,Dar al Gani 011,5527.0,Valid,H6,898.0,Found,1995.0,27.16467,16.16917,"(27.164670, 16.169170)"
5519,Dar al Gani 012,5528.0,Valid,L6,769.0,Found,1995.0,27.132,16.29767,"(27.132000, 16.297670)"
5520,Dar al Gani 013,5529.0,Valid,R3.5-6,205.0,Found,1995.0,27.1295,16.3435,"(27.129500, 16.343500)"
5521,Dar al Gani 014,5530.0,Valid,H5,147.0,Found,1995.0,27.10917,16.46617,"(27.109170, 16.466170)"
5522,Dar al Gani 015,5531.0,Valid,H6,619.0,Found,1995.0,27.107,16.39333,"(27.107000, 16.393330)"
5523,Dar al Gani 016,5532.0,Valid,H5,516.0,Found,1995.0,27.098,16.32233,"(27.098000, 16.322330)"
5524,Dar al Gani 017,5533.0,Valid,L6,713.0,Found,1995.0,27.09267,16.31317,"(27.092670, 16.313170)"
5525,Dar al Gani 018,5534.0,Valid,H5,287.0,Found,1995.0,27.092,16.3,"(27.092000, 16.300000)"
5526,Dar al Gani 019,5535.0,Valid,H6,3096.0,Found,1995.0,27.08083,16.201,"(27.080830, 16.201000)"
5527,Dar al Gani 020,5536.0,Valid,L4/5,1190.0,Found,1995.0,27.07717,16.19317,"(27.077170, 16.193170)"
5528,Dar al Gani 021,5537.0,Valid,L6,83.0,Found,1995.0,27.07717,16.193,"(27.077170, 16.193000)"
5529,Dar al Gani 022,5538.0,Valid,LL3-6,362.0,Found,1995.0,27.0775,16.16917,"(27.077500, 16.169170)"
5530,Dar al Gani 023,5539.0,Valid,CO3,31.0,Found,1995.0,27.09767,16.0255,"(27.097670, 16.025500)"
5531,Dar al Gani 024,5540.0,Valid,H6,113.0,Found,1995.0,27.10483,16.01133,"(27.104830, 16.011330)"
5532,Dar al Gani 025,5541.0,Valid,CO3,483.0,Found,1995.0,27.10483,16.01133,"(27.104830, 16.011330)"
5533,Dar al Gani 026,5542.0,Valid,LL6,236.0,Found,1995.0,27.11417,16.0015,"(27.114170, 16.001500)"
5534,Dar al Gani 027,5543.0,Valid,CO3,281.0,Found,1995.0,27.12783,15.97117,"(27.127830, 15.971170)"
5535,Dar al Gani 028,5544.0,Valid,L6,231.0,Found,1995.0,27.225,15.0295,"(27.225000, 15.029500)"
5536,Dar al Gani 029,5545.0,Valid,H6,1620.0,Found,1995.0,27.20167,16.093,"(27.201670, 16.093000)"
5537,Dar al Gani 030,5546.0,Valid,H3.9-6,404.0,Found,1995.0,27.1915,16.1345,"(27.191500, 16.134500)"
5538,Dar al Gani 032,5548.0,Valid,CO3,579.0,Found,1995.0,27.08467,16.03683,"(27.084670, 16.036830)"
5539,Dar al Gani 033,5549.0,Valid,L6,126.0,Found,1995.0,27.0805,16.12567,"(27.080500, 16.125670)"
5540,Dar al Gani 034,5550.0,Valid,L6,406.0,Found,1995.0,27.08267,16.13783,"(27.082670, 16.137830)"
5541,Dar al Gani 035,5551.0,Valid,H5,199.0,Found,1995.0,27.08683,16.17483,"(27.086830, 16.174830)"
5542,Dar al Gani 036,5552.0,Valid,LL6,1214.0,Found,1995.0,27.10383,16.30867,"(27.103830, 16.308670)"
5543,Dar al Gani 037,5553.0,Valid,LL6,990.0,Found,1995.0,27.10767,16.32383,"(27.107670, 16.323830)"
5544,Dar al Gani 038,5554.0,Valid,LL6,674.0,Found,1995.0,27.10967,16.3515,"(27.109670, 16.351500)"
5545,Dar al Gani 039,5555.0,Valid,LL6,167.0,Found,1995.0,27.11067,16.35667,"(27.110670, 16.356670)"
5546,Dar al Gani 040,5556.0,Valid,L6,176.0,Found,1995.0,27.1115,16.4365,"(27.111500, 16.436500)"
5547,Dar al Gani 041,5557.0,Valid,H5,95.0,Found,1995.0,27.13583,16.36017,"(27.135830, 16.360170)"
5548,Dar al Gani 042,5558.0,Valid,H5,176.0,Found,1995.0,27.13367,16.358,"(27.133670, 16.358000)"
5549,Dar al Gani 043,5559.0,Valid,H5-6,38.0,Found,1995.0,27.13383,16.331,"(27.133830, 16.331000)"
5550,Dar al Gani 044,5560.0,Valid,H4,1741.0,Found,1995.0,27.13933,16.27267,"(27.139330, 16.272670)"
5551,Dar al Gani 045,5561.0,Valid,H6,1010.0,Found,1995.0,27.14617,16.16367,"(27.146170, 16.163670)"
5552,Dar al Gani 046,5562.0,Valid,LL6,192.0,Found,1995.0,27.15267,16.10617,"(27.152670, 16.106170)"
5553,Dar al Gani 047,5563.0,Valid,L6,240.0,Found,1995.0,27.27517,16.09383,"(27.275170, 16.093830)"
5554,Dar al Gani 048,5564.0,Valid,L5,242.0,Found,1995.0,27.25817,16.1355,"(27.258170, 16.135500)"
5555,Dar al Gani 049,5565.0,Valid,L4/5,100.0,Found,1995.0,27.30583,16.13567,"(27.305830, 16.135670)"
5556,Dar al Gani 050,5566.0,Valid,L5,1808.0,Found,1995.0,27.3055,16.20917,"(27.305500, 16.209170)"
5557,Dar al Gani 051,5567.0,Valid,H5,121.0,Found,1995.0,27.30383,16.24483,"(27.303830, 16.244830)"
5558,Dar al Gani 052,5568.0,Valid,LL4-6,164.0,Found,1995.0,27.30317,16.25467,"(27.303170, 16.254670)"
5559,Dar al Gani 053,5569.0,Valid,H5,276.0,Found,1995.0,27.30517,16.26417,"(27.305170, 16.264170)"
5560,Dar al Gani 054,5570.0,Valid,LL3.8,957.0,Found,1995.0,27.30483,16.30017,"(27.304830, 16.300170)"
5561,Dar al Gani 055,5571.0,Valid,C3-ung,451.0,Found,1995.0,27.26717,16.42033,"(27.267170, 16.420330)"
5562,Dar al Gani 056,5572.0,Valid,C3-ung,703.0,Found,1995.0,27.26783,16.41317,"(27.267830, 16.413170)"
5563,Dar al Gani 057,5573.0,Valid,L6,36.0,Found,1995.0,27.26883,16.23633,"(27.268830, 16.236330)"
5564,Dar al Gani 058,5574.0,Valid,L5,1490.0,Found,1995.0,27.279,16.21733,"(27.279000, 16.217330)"
5565,Dar al Gani 059,5575.0,Valid,L5,944.0,Found,1995.0,27.29867,16.16683,"(27.298670, 16.166830)"
5566,Dar al Gani 060,5576.0,Valid,LL5-6,425.0,Found,1995.0,27.32017,16.0775,"(27.320170, 16.077500)"
5567,Dar al Gani 061,5577.0,Valid,LL5-6,3130.0,Found,1995.0,27.45767,16.28017,"(27.457670, 16.280170)"
5568,Dar al Gani 062,5578.0,Valid,LL5-6,421.0,Found,1995.0,27.45483,16.31333,"(27.454830, 16.313330)"
5569,Dar al Gani 063,5579.0,Valid,H5,199.0,Found,1995.0,27.4055,16.32833,"(27.405500, 16.328330)"
5570,Dar al Gani 064,5580.0,Valid,L6,229.0,Found,1995.0,27.40633,16.31967,"(27.406330, 16.319670)"
5571,Dar al Gani 065,5581.0,Valid,L5,90.0,Found,1995.0,27.41633,16.19433,"(27.416330, 16.194330)"
5572,Dar al Gani 066,5582.0,Valid,H5,50.0,Found,1995.0,27.4205,16.16667,"(27.420500, 16.166670)"
5573,Dar al Gani 067,5583.0,Valid,CO3,688.0,Found,1995.0,27.1455,15.95067,"(27.145500, 15.950670)"
5574,Dar al Gani 068,5584.0,Valid,H5,250.0,Found,1995.0,27.0705,16.0945,"(27.070500, 16.094500)"
5575,Dar al Gani 069,5585.0,Valid,L6,110.0,Found,1995.0,27.04767,16.4515,"(27.047670, 16.451500)"
5576,Dar al Gani 070,5586.0,Valid,H6,458.0,Found,1995.0,27.05233,16.42633,"(27.052330, 16.426330)"
5577,Dar al Gani 071,5587.0,Valid,L6,392.0,Found,1995.0,27.056,16.399,"(27.056000, 16.399000)"
5578,Dar al Gani 072,5588.0,Valid,H6,117.0,Found,1995.0,27.1055,16.04583,"(27.105500, 16.045830)"
5579,Dar al Gani 073,5589.0,Valid,H6,215.0,Found,1995.0,27.12883,16.035,"(27.128830, 16.035000)"
5580,Dar al Gani 074,5590.0,Valid,H5/6,86.0,Found,1995.0,27.16033,16.03533,"(27.160330, 16.035330)"
5581,Dar al Gani 075,5591.0,Valid,H4,1025.0,Found,1995.0,27.19967,16.03567,"(27.199670, 16.035670)"
5582,Dar al Gani 076,5592.0,Valid,H6,123.0,Found,1995.0,27.1045,16.00983,"(27.104500, 16.009830)"
5583,Dar al Gani 077,5593.0,Valid,H6,443.0,Found,1995.0,27.10733,16.02233,"(27.107330, 16.022330)"
5584,Dar al Gani 078,5594.0,Valid,CO3,838.0,Found,1995.0,27.10483,16.06317,"(27.104830, 16.063170)"
5585,Dar al Gani 079,5595.0,Valid,H6,252.0,Found,1995.0,27.11817,16.02717,"(27.118170, 16.027170)"
5586,Dar al Gani 080,5596.0,Valid,H6,216.0,Found,1995.0,27.10083,16.02333,"(27.100830, 16.023330)"
5587,Dar al Gani 081,5597.0,Valid,CO3,125.0,Found,1995.0,27.11017,16.01817,"(27.110170, 16.018170)"
5588,Dar al Gani 082,5598.0,Valid,CO3,860.0,Found,1995.0,27.167,15.93933,"(27.167000, 15.939330)"
5589,Dar al Gani 083,5599.0,Valid,CO3,622.0,Found,1995.0,27.15967,15.96283,"(27.159670, 15.962830)"
5590,Dar al Gani 084,5600.0,Valid,Ureilite,277.0,Found,1995.0,27.04067,16.40433,"(27.040670, 16.404330)"
5591,Dar al Gani 085,5601.0,Valid,L3-4,153.0,Found,1995.0,27.04617,16.37217,"(27.046170, 16.372170)"
5592,Dar al Gani 086,5602.0,Valid,L6,237.0,Found,1995.0,27.08433,16.119,"(27.084330, 16.119000)"
5593,Dar al Gani 087,5603.0,Valid,H6,217.0,Found,1995.0,27.1355,16.03017,"(27.135500, 16.030170)"
5594,Dar al Gani 088,5604.0,Valid,H5,236.0,Found,1995.0,27.1425,16.0295,"(27.142500, 16.029500)"
5595,Dar al Gani 089,5605.0,Valid,H5,541.0,Found,1995.0,27.143,16.028,"(27.143000, 16.028000)"
5596,Dar al Gani 090,5606.0,Valid,H5,628.0,Found,1995.0,27.1585,16.03133,"(27.158500, 16.031330)"
5597,Dar al Gani 091,5607.0,Valid,L5/6,144.0,Found,1995.0,27.22017,16.03317,"(27.220170, 16.033170)"
5598,Dar al Gani 092,5608.0,Valid,L6,137.0,Found,1995.0,27.23317,16.02933,"(27.233170, 16.029330)"
5599,Dar al Gani 093,5609.0,Valid,L6,522.0,Found,1995.0,27.2705,16.04067,"(27.270500, 16.040670)"
5600,Dar al Gani 094,5610.0,Valid,H5,385.0,Found,1996.0,27.0655,16.0875,"(27.065500, 16.087500)"
5601,Dar al Gani 095,5611.0,Valid,L5,840.0,Found,1996.0,27.10683,16.51617,"(27.106830, 16.516170)"
5602,Dar al Gani 096,5612.0,Valid,H5,209.0,Found,1996.0,27.1025,16.23817,"(27.102500, 16.238170)"
5603,Dar al Gani 097,5613.0,Valid,H6,67.0,Found,1996.0,27.11433,16.145,"(27.114330, 16.145000)"
5604,Dar al Gani 098,5614.0,Valid,H5/6,132.0,Found,1996.0,27.1135,16.143,"(27.113500, 16.143000)"
5605,Dar al Gani 099,5615.0,Valid,H6,254.0,Found,1996.0,27.12017,16.11117,"(27.120170, 16.111170)"
5606,Dar al Gani 100,5616.0,Valid,H6,4840.0,Found,1996.0,27.12117,16.10883,"(27.121170, 16.108830)"
5607,Dar al Gani 1000,5617.0,Valid,Ureilite-pmict,17.92,Found,1997.0,27.0135,16.36583,"(27.013500, 16.365830)"
5608,Dar al Gani 1001,5618.0,Valid,H6,132.0,Found,1999.0,27.37683,16.30233,"(27.376830, 16.302330)"
5609,Dar al Gani 1002,5619.0,Valid,H5,370.0,Found,1999.0,27.35133,16.25367,"(27.351330, 16.253670)"
5610,Dar al Gani 1003,5620.0,Valid,H5,236.0,Found,1999.0,27.27833,16.27717,"(27.278330, 16.277170)"
5611,Dar al Gani 1004,5621.0,Valid,H5,287.0,Found,1999.0,27.2585,16.09233,"(27.258500, 16.092330)"
5612,Dar al Gani 1005,5622.0,Valid,H4,477.0,Found,1999.0,27.19017,16.30833,"(27.190170, 16.308330)"
5613,Dar al Gani 1006,5623.0,Valid,CO3,4150.0,Found,1999.0,27.203,15.90067,"(27.203000, 15.900670)"
5614,Dar al Gani 1007,5624.0,Valid,L6,124.0,Found,1999.0,27.1585,16.45617,"(27.158500, 16.456170)"
5615,Dar al Gani 1008,5625.0,Valid,H5,108.0,Found,1999.0,27.917,16.48767,"(27.917000, 16.487670)"
5616,Dar al Gani 1009,5626.0,Valid,L5,85.0,Found,1999.0,27.94783,16.50983,"(27.947830, 16.509830)"
5617,Dar al Gani 101,5627.0,Valid,H6,842.0,Found,1996.0,27.1295,16.06867,"(27.129500, 16.068670)"
5618,Dar al Gani 1010,5628.0,Valid,Ureilite,119.0,Found,2000.0,27.04133,16.38767,"(27.041330, 16.387670)"
5619,Dar al Gani 1011,5629.0,Valid,L5,38.05,Found,1999.0,27.04306,16.41167,"(27.043060, 16.411670)"
5620,Dar al Gani 1012,5630.0,Valid,H5,14.8,Found,1999.0,27.15222,16.48306,"(27.152220, 16.483060)"
5621,Dar al Gani 1013,5631.0,Valid,L4-5,20.32,Found,1999.0,27.15222,16.51722,"(27.152220, 16.517220)"
5622,Dar al Gani 1014,5632.0,Valid,H5,239.0,Found,1999.0,27.57139,16.175,"(27.571390, 16.175000)"
5623,Dar al Gani 1015,5633.0,Valid,H5,247.0,Found,1999.0,27.42639,16.27417,"(27.426390, 16.274170)"
5624,Dar al Gani 1016,49486.0,Valid,L~6,11.65,Found,1999.0,27.25253,16.08372,"(27.252530, 16.083720)"
5625,Dar al Gani 1017,49487.0,Valid,LL~6,176.78,Found,1999.0,27.4387,15.94838,"(27.438700, 15.948380)"
5626,Dar al Gani 1018,5634.0,Valid,H5,181.88,Found,1999.0,27.63167,16.08694,"(27.631670, 16.086940)"
5627,Dar al Gani 1019,5635.0,Valid,L5,104.1,Found,1999.0,27.57139,16.08333,"(27.571390, 16.083330)"
5628,Dar al Gani 102,5636.0,Valid,H6,173.0,Found,1996.0,27.1205,16.0235,"(27.120500, 16.023500)"
5629,Dar al Gani 1020,5637.0,Valid,H5,55.8,Found,2000.0,27.92472,16.9575,"(27.924720, 16.957500)"
5630,Dar al Gani 1021,5638.0,Valid,H5,101.1,Found,2000.0,27.01083,16.18167,"(27.010830, 16.181670)"
5631,Dar al Gani 1022,5639.0,Valid,LL7,33.6,Found,2001.0,27.08333,16.25,"(27.083330, 16.250000)"
5632,Dar al Gani 1023,5640.0,Valid,Ureilite-pmict,149.0,Found,1999.0,27.02583,16.38783,"(27.025830, 16.387830)"
5633,Dar al Gani 1024,5641.0,Valid,LL5,142.0,Found,1999.0,27.188,16.40233,"(27.188000, 16.402330)"
5634,Dar al Gani 1025,5642.0,Valid,LL4,173.0,Found,1999.0,26.90633,16.6865,"(26.906330, 16.686500)"
5635,Dar al Gani 1026,34018.0,Valid,L3,214.0,Found,1999.0,26.907,16.6815,"(26.907000, 16.681500)"
5636,Dar al Gani 1027,30498.0,Valid,L5,137.0,Found,1999.0,27.231,16.249,"(27.231000, 16.249000)"
5637,Dar al Gani 1028,30499.0,Valid,CO3,131.0,Found,2000.0,27.07567,16.06633,"(27.075670, 16.066330)"
5638,Dar al Gani 1029,5643.0,Valid,LL5,68.0,Found,2000.0,27.919,16.684,"(27.919000, 16.684000)"
5639,Dar al Gani 103,5644.0,Valid,L5,594.0,Found,1996.0,27.17017,16.0355,"(27.170170, 16.035500)"
5640,Dar al Gani 1030,5645.0,Valid,CK4/5,10.09,Found,1998.0,27.22167,16.25,"(27.221670, 16.250000)"
5641,Dar al Gani 1031,5646.0,Valid,EL4,20.15,Found,1998.0,27.14683,16.05017,"(27.146830, 16.050170)"
5642,Dar al Gani 1032,5647.0,Valid,H3/4,321.0,Found,2000.0,27.035,16.38133,"(27.035000, 16.381330)"
5643,Dar al Gani 1033,5648.0,Valid,H4,38.9,Found,1999.0,27.46767,16.17017,"(27.467670, 16.170170)"
5644,Dar al Gani 1034,5649.0,Valid,LL6,232.0,Found,1999.0,27.66733,15.9505,"(27.667330, 15.950500)"
5645,Dar al Gani 1035,5650.0,Valid,H4,36.0,Found,1999.0,27.23233,16.196,"(27.232330, 16.196000)"
5646,Dar al Gani 1036,5651.0,Valid,Ureilite,222.0,Found,1999.0,27.03367,16.38333,"(27.033670, 16.383330)"
5647,Dar al Gani 1037,5652.0,Valid,Martian (shergottite),4012.4,Found,1999.0,27.33333,16.21667,"(27.333330, 16.216670)"
5648,Dar al Gani 1038,5653.0,Valid,L4,80.0,Found,1999.0,27.33333,16.25,"(27.333330, 16.250000)"
5649,Dar al Gani 1039,30500.0,Valid,L6,889.0,Found,1999.0,27.33017,16.23117,"(27.330170, 16.231170)"
5650,Dar al Gani 104,5654.0,Valid,H6,269.0,Found,1996.0,27.13533,16.052,"(27.135330, 16.052000)"
5651,Dar al Gani 1040,30501.0,Valid,CV3,781.0,Found,2001.0,27.28133,16.40833,"(27.281330, 16.408330)"
5652,Dar al Gani 1041,32785.0,Valid,CO3,169.0,Found,1998.0,27.08333,16.055,"(27.083330, 16.055000)"
5653,Dar al Gani 1042,44710.0,Valid,Lunar,801.0,Found,1999.0,27.182,16.30017,"(27.182000, 16.300170)"
5654,Dar al Gani 1043,44878.0,Valid,LL6,32.1,Found,2005.0,27.43333,16.0,"(27.433330, 16.000000)"
5655,Dar al Gani 1044,44879.0,Valid,LL5,235.0,Found,2006.0,27.45056,16.19167,"(27.450560, 16.191670)"
5656,Dar al Gani 1045,49488.0,Valid,L6,955.0,Found,2005.0,27.49583,16.25833,"(27.495830, 16.258330)"
5657,Dar al Gani 1047,44880.0,Valid,Ureilite-pmict,49.8,Found,1999.0,27.03583,16.38528,"(27.035830, 16.385280)"
5658,Dar al Gani 1048,44881.0,Valid,Lunar (feldsp. breccia),0.8,Found,2001.0,27.20167,16.31117,"(27.201670, 16.311170)"
5659,Dar al Gani 1049 ,47348.0,Valid,H5,88.0,Found,2007.0,27.26633,16.35783,"(27.266330, 16.357830)"
5660,Dar al Gani 105,5655.0,Valid,H6,85.0,Found,1996.0,27.13383,16.06533,"(27.133830, 16.065330)"
5661,Dar al Gani 1050 ,47349.0,Valid,H6,265.0,Found,2007.0,28.21417,15.55083,"(28.214170, 15.550830)"
5662,Dar al Gani 1051,51562.0,Valid,Martian (shergottite),40.1,Found,2000.0,27.16917,16.13533,"(27.169170, 16.135330)"
5663,Dar al Gani 1052,53617.0,Valid,LL5,280.0,Found,2008.0,27.32833,16.21867,"(27.328330, 16.218670)"
5664,Dar al Gani 1053,53636.0,Valid,CV3,98.0,Found,2006.0,27.24167,16.23267,"(27.241670, 16.232670)"
5665,Dar al Gani 1054,53637.0,Valid,Ureilite,28.4,Found,1999.0,27.42767,16.1655,"(27.427670, 16.165500)"
5666,Dar al Gani 1055,53638.0,Valid,Eucrite-pmict,305.0,Found,2007.0,27.38,16.469,"(27.380000, 16.469000)"
5667,Dar al Gani 1057,53767.0,Valid,LL5,114.0,Found,1998.0,27.28,16.14783,"(27.280000, 16.147830)"
5668,Dar al Gani 1058,54650.0,Valid,Lunar (feldsp. breccia),1815.0,Found,1998.0,27.375,16.184,"(27.375000, 16.184000)"
5669,Dar al Gani 1059,56098.0,Valid,H6,1470.0,Found,2010.0,28.28767,15.49467,"(28.287670, 15.494670)"
5670,Dar al Gani 106,5656.0,Valid,H6,293.0,Found,1996.0,27.13233,16.068,"(27.132330, 16.068000)"
5671,Dar al Gani 1060,56412.0,Valid,Eucrite,310.0,Found,2010.0,26.9195,16.657,"(26.919500, 16.657000)"
5672,Dar al Gani 1061,56304.0,Valid,Ureilite,207.0,Found,2010.0,27.23017,16.48833,"(27.230170, 16.488330)"
5673,Dar al Gani 1063,56648.0,Valid,CV3,410.3,Found,2002.0,27.27417,16.40833,"(27.274170, 16.408330)"
5674,Dar al Gani 107,5657.0,Valid,H6,1510.0,Found,1996.0,27.1345,16.08933,"(27.134500, 16.089330)"
5675,Dar al Gani 108,5658.0,Valid,H5,221.0,Found,1996.0,27.18317,16.33083,"(27.183170, 16.330830)"
5676,Dar al Gani 109,5659.0,Valid,LL5-6,47.0,Found,1996.0,27.16383,16.52033,"(27.163830, 16.520330)"
5677,Dar al Gani 110,5660.0,Valid,L6,57.0,Found,1996.0,27.15,16.40633,"(27.150000, 16.406330)"
5678,Dar al Gani 111,5661.0,Valid,H6,76.0,Found,1996.0,27.14967,16.21,"(27.149670, 16.210000)"
5679,Dar al Gani 112,5662.0,Valid,L5/6,212.0,Found,1996.0,27.1675,16.14067,"(27.167500, 16.140670)"
5680,Dar al Gani 113,5663.0,Valid,H5,290.0,Found,1996.0,27.1835,16.11517,"(27.183500, 16.115170)"
5681,Dar al Gani 114,5664.0,Valid,H5,223.0,Found,1996.0,27.184,16.11183,"(27.184000, 16.111830)"
5682,Dar al Gani 115,5665.0,Valid,H5-6,379.0,Found,1996.0,27.19567,16.10033,"(27.195670, 16.100330)"
5683,Dar al Gani 116,5666.0,Valid,H5,615.0,Found,1996.0,27.19583,16.01317,"(27.195830, 16.013170)"
5684,Dar al Gani 117,5667.0,Valid,H5,415.0,Found,1996.0,27.19583,16.01317,"(27.195830, 16.013170)"
5685,Dar al Gani 118,5668.0,Valid,L5/6,1770.0,Found,1996.0,27.25483,16.00667,"(27.254830, 16.006670)"
5686,Dar al Gani 119,5669.0,Valid,H5,287.0,Found,1996.0,27.133,16.0395,"(27.133000, 16.039500)"
5687,Dar al Gani 120,5670.0,Valid,H5,132.0,Found,1996.0,27.11167,16.02983,"(27.111670, 16.029830)"
5688,Dar al Gani 121,5671.0,Valid,H6,282.0,Found,1996.0,27.10467,16.01167,"(27.104670, 16.011670)"
5689,Dar al Gani 122,5672.0,Valid,H6,182.0,Found,1996.0,27.1075,16.03583,"(27.107500, 16.035830)"
5690,Dar al Gani 123,5673.0,Valid,H6,511.0,Found,1996.0,27.11067,16.07017,"(27.110670, 16.070170)"
5691,Dar al Gani 124,5674.0,Valid,H6,204.0,Found,1996.0,27.1185,16.10333,"(27.118500, 16.103330)"
5692,Dar al Gani 125,5675.0,Valid,H6,860.0,Found,1996.0,27.1205,16.11217,"(27.120500, 16.112170)"
5693,Dar al Gani 126,5676.0,Valid,H6,90.0,Found,1996.0,27.13033,16.1565,"(27.130330, 16.156500)"
5694,Dar al Gani 127,5677.0,Valid,H6,619.0,Found,1996.0,27.13317,16.16333,"(27.133170, 16.163330)"
5695,Dar al Gani 128,5678.0,Valid,H5,281.0,Found,1996.0,27.15233,16.26717,"(27.152330, 16.267170)"
5696,Dar al Gani 129,5679.0,Valid,H5,299.0,Found,1996.0,27.155,16.27883,"(27.155000, 16.278830)"
5697,Dar al Gani 130,5680.0,Valid,L6,303.0,Found,1996.0,27.12933,16.37283,"(27.129330, 16.372830)"
5698,Dar al Gani 131,5681.0,Valid,L6,114.0,Found,1996.0,27.1355,16.3205,"(27.135500, 16.320500)"
5699,Dar al Gani 132,5682.0,Valid,H5,120.0,Found,1996.0,27.159,16.22,"(27.159000, 16.220000)"
5700,Dar al Gani 133,5683.0,Valid,H6,62.0,Found,1996.0,27.16717,16.1505,"(27.167170, 16.150500)"
5701,Dar al Gani 134,5684.0,Valid,H6,39.0,Found,1996.0,27.16983,16.14317,"(27.169830, 16.143170)"
5702,Dar al Gani 136,5685.0,Valid,CO3,399.0,Found,1996.0,27.10133,16.0215,"(27.101330, 16.021500)"
5703,Dar al Gani 137,5686.0,Valid,CO3,193.0,Found,1996.0,27.10383,16.0325,"(27.103830, 16.032500)"
5704,Dar al Gani 138,5687.0,Valid,H5,454.0,Found,1996.0,27.147,16.1585,"(27.147000, 16.158500)"
5705,Dar al Gani 139,5688.0,Valid,H5,171.0,Found,1996.0,27.1575,16.208,"(27.157500, 16.208000)"
5706,Dar al Gani 140,5689.0,Valid,H3.9-6,263.0,Found,1996.0,27.1575,16.208,"(27.157500, 16.208000)"
5707,Dar al Gani 141,5690.0,Valid,L5,145.0,Found,1996.0,27.19117,16.27767,"(27.191170, 16.277670)"
5708,Dar al Gani 142,5691.0,Valid,H5/6,1225.0,Found,1996.0,27.24733,16.39733,"(27.247330, 16.397330)"
5709,Dar al Gani 143,5692.0,Valid,H5/6,133.0,Found,1996.0,26.98333,16.506,"(26.983330, 16.506000)"
5710,Dar al Gani 144,5693.0,Valid,H5/6,302.0,Found,1996.0,26.98133,16.50433,"(26.981330, 16.504330)"
5711,Dar al Gani 146,5694.0,Valid,H6,837.0,Found,1996.0,27.03367,16.4055,"(27.033670, 16.405500)"
5712,Dar al Gani 147,5695.0,Valid,H5,387.0,Found,1996.0,27.04517,16.38167,"(27.045170, 16.381670)"
5713,Dar al Gani 148,5696.0,Valid,H5,1006.0,Found,1996.0,27.04567,16.3795,"(27.045670, 16.379500)"
5714,Dar al Gani 149,5697.0,Valid,L3-5,116.0,Found,1996.0,27.0465,16.37267,"(27.046500, 16.372670)"
5715,Dar al Gani 150,5698.0,Valid,H6,218.0,Found,1996.0,27.14033,16.20467,"(27.140330, 16.204670)"
5716,Dar al Gani 151,5699.0,Valid,H5,130.0,Found,1996.0,27.185,16.1335,"(27.185000, 16.133500)"
5717,Dar al Gani 152,5700.0,Valid,L6,118.0,Found,1996.0,27.186,16.13083,"(27.186000, 16.130830)"
5718,Dar al Gani 153,5701.0,Valid,H6,145.0,Found,1996.0,27.18667,16.12283,"(27.186670, 16.122830)"
5719,Dar al Gani 154,5702.0,Valid,H6,259.0,Found,1996.0,27.1915,16.115,"(27.191500, 16.115000)"
5720,Dar al Gani 155,5703.0,Valid,H5,1380.0,Found,1996.0,27.15617,16.029,"(27.156170, 16.029000)"
5721,Dar al Gani 156,5704.0,Valid,H6,107.0,Found,1996.0,27.111,16.02167,"(27.111000, 16.021670)"
5722,Dar al Gani 157,5705.0,Valid,H6,63.0,Found,1996.0,27.11067,16.02583,"(27.110670, 16.025830)"
5723,Dar al Gani 158,5706.0,Valid,H6,70.0,Found,1996.0,27.108,16.071,"(27.108000, 16.071000)"
5724,Dar al Gani 159,5707.0,Valid,L6,326.0,Found,1996.0,27.12017,16.20833,"(27.120170, 16.208330)"
5725,Dar al Gani 160,5708.0,Valid,H4,347.0,Found,1996.0,27.13817,16.27233,"(27.138170, 16.272330)"
5726,Dar al Gani 161,5709.0,Valid,H5/6,120.0,Found,1996.0,27.03017,16.53683,"(27.030170, 16.536830)"
5727,Dar al Gani 162,5710.0,Valid,LL6,89.0,Found,1996.0,27.03083,16.5215,"(27.030830, 16.521500)"
5728,Dar al Gani 163,5711.0,Valid,H6,151.0,Found,1996.0,27.02683,16.5085,"(27.026830, 16.508500)"
5729,Dar al Gani 164,5712.0,Valid,Ureilite-pmict,57.0,Found,1996.0,27.0505,16.40517,"(27.050500, 16.405170)"
5730,Dar al Gani 165,5713.0,Valid,Ureilite-pmict,32.0,Found,1996.0,27.05117,16.39233,"(27.051170, 16.392330)"
5731,Dar al Gani 166,5714.0,Valid,H5,44.0,Found,1996.0,27.16533,16.14483,"(27.165330, 16.144830)"
5732,Dar al Gani 167,5715.0,Valid,H5-6,1732.0,Found,1996.0,27.18367,16.11583,"(27.183670, 16.115830)"
5733,Dar al Gani 168,5716.0,Valid,L6,533.0,Found,1996.0,27.24983,16.0205,"(27.249830, 16.020500)"
5734,Dar al Gani 169,5717.0,Valid,L6,814.0,Found,1996.0,27.63567,16.87778,"(27.635670, 16.877780)"
5735,Dar al Gani 170,5718.0,Valid,H5-6,759.0,Found,1996.0,27.69983,15.72694,"(27.699830, 15.726940)"
5736,Dar al Gani 171,5719.0,Valid,CO3,112.0,Found,1996.0,27.09617,16.02567,"(27.096170, 16.025670)"
5737,Dar al Gani 172,5720.0,Valid,H6,138.0,Found,1996.0,27.102,16.02017,"(27.102000, 16.020170)"
5738,Dar al Gani 173,5721.0,Valid,CO3,492.0,Found,1996.0,27.11167,16.01333,"(27.111670, 16.013330)"
5739,Dar al Gani 174,5722.0,Valid,H5,452.0,Found,1996.0,27.1165,16.083,"(27.116500, 16.083000)"
5740,Dar al Gani 175,5723.0,Valid,H5-6,1641.0,Found,1996.0,27.11783,16.08533,"(27.117830, 16.085330)"
5741,Dar al Gani 176,5724.0,Valid,H4,158.0,Found,1996.0,27.12483,16.12083,"(27.124830, 16.120830)"
5742,Dar al Gani 177,5725.0,Valid,LL6,133.0,Found,1996.0,27.127,16.12933,"(27.127000, 16.129330)"
5743,Dar al Gani 178,5726.0,Valid,L6,640.0,Found,1996.0,27.141,16.16783,"(27.141000, 16.167830)"
5744,Dar al Gani 179,5727.0,Valid,H4,72.0,Found,1996.0,27.152,16.197,"(27.152000, 16.197000)"
5745,Dar al Gani 180,5728.0,Valid,LL3.9,1700.0,Found,1996.0,27.2645,16.40867,"(27.264500, 16.408670)"
5746,Dar al Gani 181,5729.0,Valid,L6,113.0,Found,1996.0,27.07583,16.45333,"(27.075830, 16.453330)"
5747,Dar al Gani 182,5730.0,Valid,L6,377.0,Found,1996.0,27.07333,16.43083,"(27.073330, 16.430830)"
5748,Dar al Gani 183,5731.0,Valid,L6,612.0,Found,1996.0,27.07717,16.39817,"(27.077170, 16.398170)"
5749,Dar al Gani 184,5732.0,Valid,L6,314.0,Found,1996.0,27.07733,16.217,"(27.077330, 16.217000)"
5750,Dar al Gani 185,5733.0,Valid,LL6,172.0,Found,1996.0,27.1485,16.0945,"(27.148500, 16.094500)"
5751,Dar al Gani 186,5734.0,Valid,CO3,599.0,Found,1996.0,27.10267,16.02833,"(27.102670, 16.028330)"
5752,Dar al Gani 187,5735.0,Valid,L6,393.0,Found,1996.0,27.10667,16.0085,"(27.106670, 16.008500)"
5753,Dar al Gani 188,5736.0,Valid,CO3,828.0,Found,1996.0,27.1705,15.94517,"(27.170500, 15.945170)"
5754,Dar al Gani 189,5737.0,Valid,CO3,3370.0,Found,1996.0,27.18283,15.94233,"(27.182830, 15.942330)"
5755,Dar al Gani 190,5738.0,Valid,CO3,2550.0,Found,1996.0,27.16467,15.943,"(27.164670, 15.943000)"
5756,Dar al Gani 191,5739.0,Valid,CO3,1379.0,Found,1996.0,27.1615,15.95083,"(27.161500, 15.950830)"
5757,Dar al Gani 192,5740.0,Valid,CO3,3145.0,Found,1996.0,27.12817,16.004,"(27.128170, 16.004000)"
5758,Dar al Gani 193,5741.0,Valid,H6,115.0,Found,1996.0,27.11833,16.01017,"(27.118330, 16.010170)"
5759,Dar al Gani 194,5742.0,Valid,CO3,581.0,Found,1996.0,27.09967,16.03467,"(27.099670, 16.034670)"
5760,Dar al Gani 195,5743.0,Valid,H6,299.0,Found,1996.0,27.0815,16.148,"(27.081500, 16.148000)"
5761,Dar al Gani 196,5744.0,Valid,L6,331.0,Found,1996.0,27.09133,16.289,"(27.091330, 16.289000)"
5762,Dar al Gani 197,5745.0,Valid,H5,46.0,Found,1996.0,27.03783,16.4685,"(27.037830, 16.468500)"
5763,Dar al Gani 198,5746.0,Valid,H6,337.0,Found,1996.0,27.04717,16.44133,"(27.047170, 16.441330)"
5764,Dar al Gani 199,5747.0,Valid,H6,1699.0,Found,1996.0,27.058,16.40217,"(27.058000, 16.402170)"
5765,Dar al Gani 200,5748.0,Valid,H5-6,429.0,Found,1996.0,27.0715,16.091,"(27.071500, 16.091000)"
5766,Dar al Gani 201,5749.0,Valid,H6,129.0,Found,1996.0,27.09583,16.03683,"(27.095830, 16.036830)"
5767,Dar al Gani 202,5750.0,Valid,H6,554.0,Found,1996.0,27.117,16.01533,"(27.117000, 16.015330)"
5768,Dar al Gani 203,5751.0,Valid,CO3,378.0,Found,1996.0,27.1245,15.99167,"(27.124500, 15.991670)"
5769,Dar al Gani 204,5752.0,Valid,CO3,720.0,Found,1996.0,27.15117,15.9665,"(27.151170, 15.966500)"
5770,Dar al Gani 205,5753.0,Valid,H5-6,2195.0,Found,1996.0,27.643,15.90167,"(27.643000, 15.901670)"
5771,Dar al Gani 206,5754.0,Valid,L6,122.0,Found,1996.0,27.62517,15.98217,"(27.625170, 15.982170)"
5772,Dar al Gani 207,5755.0,Valid,H5-6,66.0,Found,1996.0,27.624,16.05117,"(27.624000, 16.051170)"
5773,Dar al Gani 208,5756.0,Valid,H5-6,113.0,Found,1996.0,27.62467,16.0545,"(27.624670, 16.054500)"
5774,Dar al Gani 209,5757.0,Valid,L6,184.0,Found,1996.0,27.62417,16.05983,"(27.624170, 16.059830)"
5775,Dar al Gani 210,5758.0,Valid,L6,182.0,Found,1996.0,27.62433,16.06233,"(27.624330, 16.062330)"
5776,Dar al Gani 211,5759.0,Valid,H6,505.0,Found,1996.0,27.54733,16.3655,"(27.547330, 16.365500)"
5777,Dar al Gani 212,5760.0,Valid,H6,147.0,Found,1996.0,27.6315,16.03333,"(27.631500, 16.033330)"
5778,Dar al Gani 213,5761.0,Valid,H6,136.0,Found,1996.0,27.12033,16.063,"(27.120330, 16.063000)"
5779,Dar al Gani 214,5762.0,Valid,H6,231.0,Found,1996.0,27.12133,16.0685,"(27.121330, 16.068500)"
5780,Dar al Gani 215,5763.0,Valid,H6,3600.0,Found,1996.0,27.1275,16.104,"(27.127500, 16.104000)"
5781,Dar al Gani 216,5764.0,Valid,L3,95.0,Found,1996.0,27.126,16.1065,"(27.126000, 16.106500)"
5782,Dar al Gani 217,5765.0,Valid,H6,3550.0,Found,1996.0,27.13083,16.13233,"(27.130830, 16.132330)"
5783,Dar al Gani 218,5766.0,Valid,H5,157.0,Found,1996.0,27.1415,16.16483,"(27.141500, 16.164830)"
5784,Dar al Gani 219,5767.0,Valid,H6,174.0,Found,1996.0,27.25733,16.38217,"(27.257330, 16.382170)"
5785,Dar al Gani 220,5768.0,Valid,H5,719.0,Found,1996.0,27.37883,16.45383,"(27.378830, 16.453830)"
5786,Dar al Gani 221,5769.0,Valid,H4-6,211.0,Found,1996.0,27.44317,16.32933,"(27.443170, 16.329330)"
5787,Dar al Gani 222,5770.0,Valid,LL5-6,837.0,Found,1996.0,27.45333,16.31267,"(27.453330, 16.312670)"
5788,Dar al Gani 223,5771.0,Valid,L6,890.0,Found,1996.0,27.495,16.259,"(27.495000, 16.259000)"
5789,Dar al Gani 224,5772.0,Valid,H6,205.0,Found,1996.0,27.56417,16.15217,"(27.564170, 16.152170)"
5790,Dar al Gani 225,5773.0,Valid,H3.9,324.0,Found,1996.0,27.5775,16.13633,"(27.577500, 16.136330)"
5791,Dar al Gani 226,5774.0,Valid,CO3,90.0,Found,1997.0,27.086,16.03683,"(27.086000, 16.036830)"
5792,Dar al Gani 227,5775.0,Valid,CO3,235.0,Found,1997.0,27.09017,16.032,"(27.090170, 16.032000)"
5793,Dar al Gani 228,5776.0,Valid,CO3,738.0,Found,1997.0,27.13717,15.8445,"(27.137170, 15.844500)"
5794,Dar al Gani 229,5777.0,Valid,CO3,125.0,Found,1997.0,27.1405,15.97483,"(27.140500, 15.974830)"
5795,Dar al Gani 230,5778.0,Valid,CO3,438.0,Found,1997.0,27.15283,15.96267,"(27.152830, 15.962670)"
5796,Dar al Gani 231,5779.0,Valid,CO3,932.0,Found,1997.0,27.1685,15.95833,"(27.168500, 15.958330)"
5797,Dar al Gani 232,5780.0,Valid,H5,1338.0,Found,1997.0,27.16583,16.08617,"(27.165830, 16.086170)"
5798,Dar al Gani 233,5781.0,Valid,L3.9-6,172.0,Found,1997.0,27.16533,16.21317,"(27.165330, 16.213170)"
5799,Dar al Gani 234,5782.0,Valid,L6,244.0,Found,1997.0,27.17717,16.26683,"(27.177170, 16.266830)"
5800,Dar al Gani 235,5783.0,Valid,H5/6,193.0,Found,1997.0,27.18567,16.31833,"(27.185670, 16.318330)"
5801,Dar al Gani 236,5784.0,Valid,H6,189.0,Found,1997.0,27.194,16.36133,"(27.194000, 16.361330)"
5802,Dar al Gani 237,5785.0,Valid,L6,437.0,Found,1997.0,27.09933,16.37983,"(27.099330, 16.379830)"
5803,Dar al Gani 238,5786.0,Valid,H6,134.0,Found,1997.0,27.15217,16.05683,"(27.152170, 16.056830)"
5804,Dar al Gani 239,5787.0,Valid,H6,335.0,Found,1997.0,27.18267,16.0905,"(27.182670, 16.090500)"
5805,Dar al Gani 240,5788.0,Valid,H4,39.0,Found,1997.0,27.19483,16.06917,"(27.194830, 16.069170)"
5806,Dar al Gani 241,5789.0,Valid,H-an,24.0,Found,1997.0,27.1975,16.062,"(27.197500, 16.062000)"
5807,Dar al Gani 242,5790.0,Valid,H-an,69.0,Found,1997.0,27.2025,16.05267,"(27.202500, 16.052670)"
5808,Dar al Gani 243,5791.0,Valid,L6,297.0,Found,1997.0,27.216,16.03233,"(27.216000, 16.032330)"
5809,Dar al Gani 244,5792.0,Valid,H5,115.0,Found,1997.0,27.18617,16.11117,"(27.186170, 16.111170)"
5810,Dar al Gani 245,5793.0,Valid,H6,224.0,Found,1997.0,27.188,16.12883,"(27.188000, 16.128830)"
5811,Dar al Gani 246,5794.0,Valid,L6,61.0,Found,1997.0,27.1885,16.13083,"(27.188500, 16.130830)"
5812,Dar al Gani 247,5795.0,Valid,LL6,107.0,Found,1997.0,27.2035,16.2,"(27.203500, 16.200000)"
5813,Dar al Gani 248,5796.0,Valid,H6,1890.0,Found,1997.0,27.20667,16.2045,"(27.206670, 16.204500)"
5814,Dar al Gani 249,5797.0,Valid,H6,62.0,Found,1997.0,27.21017,16.22083,"(27.210170, 16.220830)"
5815,Dar al Gani 250,5798.0,Valid,CK4/5,57.0,Found,1997.0,27.21833,16.25417,"(27.218330, 16.254170)"
5816,Dar al Gani 251,5799.0,Valid,L6,2412.0,Found,1997.0,27.11583,16.37683,"(27.115830, 16.376830)"
5817,Dar al Gani 252,5800.0,Valid,LL6,206.0,Found,1997.0,27.1145,16.35517,"(27.114500, 16.355170)"
5818,Dar al Gani 253,5801.0,Valid,L6,237.0,Found,1997.0,27.11483,16.34333,"(27.114830, 16.343330)"
5819,Dar al Gani 254,5802.0,Valid,LL6,617.0,Found,1997.0,27.11267,16.31583,"(27.112670, 16.315830)"
5820,Dar al Gani 255,5803.0,Valid,L5,374.0,Found,1997.0,27.11217,16.29633,"(27.112170, 16.296330)"
5821,Dar al Gani 256,5804.0,Valid,LL5-6,7141.0,Found,1997.0,27.06117,16.17817,"(27.061170, 16.178170)"
5822,Dar al Gani 257,5805.0,Valid,LL5-6,135.0,Found,1997.0,27.06967,16.1675,"(27.069670, 16.167500)"
5823,Dar al Gani 258,5806.0,Valid,L6,76.0,Found,1997.0,27.10733,16.12633,"(27.107330, 16.126330)"
5824,Dar al Gani 259,5807.0,Valid,H6,578.0,Found,1997.0,27.14533,16.08367,"(27.145330, 16.083670)"
5825,Dar al Gani 260,5808.0,Valid,H6,116.0,Found,1997.0,27.14767,16.08083,"(27.147670, 16.080830)"
5826,Dar al Gani 261,5809.0,Valid,H5/6,220.0,Found,1997.0,27.165,16.02083,"(27.165000, 16.020830)"
5827,Dar al Gani 262,5810.0,Valid,Lunar (anorth),513.0,Found,1997.0,27.18367,16.30033,"(27.183670, 16.300330)"
5828,Dar al Gani 263,5811.0,Valid,H4,151.0,Found,1997.0,27.1885,16.31483,"(27.188500, 16.314830)"
5829,Dar al Gani 264,5812.0,Valid,L/LL3-6,68.0,Found,1997.0,27.20267,16.42083,"(27.202670, 16.420830)"
5830,Dar al Gani 265,5813.0,Valid,LL6,119.0,Found,1997.0,27.10383,16.38867,"(27.103830, 16.388670)"
5831,Dar al Gani 266,5814.0,Valid,LL6,178.0,Found,1997.0,27.10633,16.374,"(27.106330, 16.374000)"
5832,Dar al Gani 267,5815.0,Valid,L5,791.0,Found,1997.0,27.11133,16.27967,"(27.111330, 16.279670)"
5833,Dar al Gani 268,5816.0,Valid,H6,128.0,Found,1997.0,27.12317,16.223,"(27.123170, 16.223000)"
5834,Dar al Gani 269,5817.0,Valid,H6,307.0,Found,1997.0,27.12833,16.20967,"(27.128330, 16.209670)"
5835,Dar al Gani 270,5818.0,Valid,H5-6,175.0,Found,1997.0,27.18383,16.12883,"(27.183830, 16.128830)"
5836,Dar al Gani 271,5819.0,Valid,L5,229.0,Found,1997.0,27.18383,16.12883,"(27.183830, 16.128830)"
5837,Dar al Gani 272,5820.0,Valid,L6,607.0,Found,1997.0,27.18383,16.12883,"(27.183830, 16.128830)"
5838,Dar al Gani 273,5821.0,Valid,H5,58.0,Found,1997.0,27.18383,16.12883,"(27.183830, 16.128830)"
5839,Dar al Gani 274,5822.0,Valid,L6,657.0,Found,1997.0,27.25117,16.07333,"(27.251170, 16.073330)"
5840,Dar al Gani 275,5823.0,Valid,CK4/5,492.0,Found,1997.0,27.36233,16.08967,"(27.362330, 16.089670)"
5841,Dar al Gani 276,5824.0,Valid,Eucrite-pmict,98.0,Found,1997.0,27.3775,16.19317,"(27.377500, 16.193170)"
5842,Dar al Gani 277,5825.0,Valid,L/LL3-5,125.0,Found,1997.0,27.3615,16.2145,"(27.361500, 16.214500)"
5843,Dar al Gani 278,5826.0,Valid,L6,97.0,Found,1997.0,27.37817,16.31217,"(27.378170, 16.312170)"
5844,Dar al Gani 279,5827.0,Valid,H5,120.0,Found,1997.0,27.37817,16.31217,"(27.378170, 16.312170)"
5845,Dar al Gani 280,5828.0,Valid,L6,155.0,Found,1997.0,27.40867,16.3185,"(27.408670, 16.318500)"
5846,Dar al Gani 281,5829.0,Valid,L6,80.0,Found,1997.0,27.4595,16.07667,"(27.459500, 16.076670)"
5847,Dar al Gani 282,5830.0,Valid,L6,128.0,Found,1997.0,27.45967,16.07267,"(27.459670, 16.072670)"
5848,Dar al Gani 283,5831.0,Valid,L5,145.0,Found,1997.0,27.4715,16.296,"(27.471500, 16.296000)"
5849,Dar al Gani 284,5832.0,Valid,L4-6,299.0,Found,1997.0,27.53817,16.44233,"(27.538170, 16.442330)"
5850,Dar al Gani 285,5833.0,Valid,L6,87.0,Found,1997.0,27.25383,16.30233,"(27.253830, 16.302330)"
5851,Dar al Gani 286,5834.0,Valid,H5,367.0,Found,1997.0,27.26183,16.26133,"(27.261830, 16.261330)"
5852,Dar al Gani 287,5835.0,Valid,L5,337.0,Found,1997.0,27.2855,16.176,"(27.285500, 16.176000)"
5853,Dar al Gani 288,5836.0,Valid,LL3,110.0,Found,1997.0,27.32667,16.09567,"(27.326670, 16.095670)"
5854,Dar al Gani 289,5837.0,Valid,CO3,98.0,Found,1997.0,27.0875,16.051,"(27.087500, 16.051000)"
5855,Dar al Gani 290,5838.0,Valid,L5/6,730.0,Found,1997.0,27.08817,16.0575,"(27.088170, 16.057500)"
5856,Dar al Gani 291,5839.0,Valid,CO3,55.0,Found,1997.0,27.08733,16.058,"(27.087330, 16.058000)"
5857,Dar al Gani 292,5840.0,Valid,L5,78.0,Found,1997.0,27.09967,16.11783,"(27.099670, 16.117830)"
5858,Dar al Gani 293,5841.0,Valid,L6,285.0,Found,1997.0,27.1025,16.134,"(27.102500, 16.134000)"
5859,Dar al Gani 294,5842.0,Valid,LL4,1616.0,Found,1997.0,27.202,16.36733,"(27.202000, 16.367330)"
5860,Dar al Gani 295,5843.0,Valid,H6,190.0,Found,1997.0,27.23,16.31217,"(27.230000, 16.312170)"
5861,Dar al Gani 296,5844.0,Valid,H4,384.0,Found,1997.0,27.29133,16.21333,"(27.291330, 16.213330)"
5862,Dar al Gani 297,5845.0,Valid,L6,255.0,Found,1997.0,27.325,16.165,"(27.325000, 16.165000)"
5863,Dar al Gani 298,5846.0,Valid,LL4,2459.0,Found,1997.0,26.78917,16.70467,"(26.789170, 16.704670)"
5864,Dar al Gani 299,5847.0,Valid,H4,177.0,Found,1997.0,26.77167,16.11133,"(26.771670, 16.111330)"
5865,Dar al Gani 300,5848.0,Valid,H3-5,118.0,Found,1997.0,26.94467,16.17933,"(26.944670, 16.179330)"
5866,Dar al Gani 301,5849.0,Valid,L6,217.0,Found,1997.0,26.9715,16.45133,"(26.971500, 16.451330)"
5867,Dar al Gani 302,5850.0,Valid,H5,191.0,Found,1997.0,26.97,16.4625,"(26.970000, 16.462500)"
5868,Dar al Gani 303,5851.0,Valid,CO3,365.0,Found,1997.0,27.135,16.2335,"(27.135000, 16.233500)"
5869,Dar al Gani 304,5852.0,Valid,H6,128.0,Found,1997.0,27.1685,16.1845,"(27.168500, 16.184500)"
5870,Dar al Gani 305,5853.0,Valid,LL5,339.0,Found,1997.0,27.28617,16.07467,"(27.286170, 16.074670)"
5871,Dar al Gani 306,5854.0,Valid,H5/6,616.0,Found,1997.0,27.70467,16.18917,"(27.704670, 16.189170)"
5872,Dar al Gani 307,5855.0,Valid,L6,370.0,Found,1997.0,27.52367,16.15117,"(27.523670, 16.151170)"
5873,Dar al Gani 308,5856.0,Valid,H6,394.0,Found,1997.0,27.38467,16.12867,"(27.384670, 16.128670)"
5874,Dar al Gani 309,5857.0,Valid,L6,132.0,Found,1997.0,27.51283,16.16267,"(27.512830, 16.162670)"
5875,Dar al Gani 310,5858.0,Valid,H5/6,96.0,Found,1997.0,27.292,16.112,"(27.292000, 16.112000)"
5876,Dar al Gani 311,5859.0,Valid,H6,707.0,Found,1997.0,27.1595,16.05283,"(27.159500, 16.052830)"
5877,Dar al Gani 312,5860.0,Valid,H6,117.0,Found,1997.0,27.08867,16.14317,"(27.088670, 16.143170)"
5878,Dar al Gani 313,5861.0,Valid,L/LL3,3294.0,Found,1997.0,26.80733,15.9015,"(26.807330, 15.901500)"
5879,Dar al Gani 314,5862.0,Valid,L6,76.0,Found,1997.0,27.12117,16.331,"(27.121170, 16.331000)"
5880,Dar al Gani 315,5863.0,Valid,H3-5,525.0,Found,1997.0,27.12217,16.312,"(27.122170, 16.312000)"
5881,Dar al Gani 316,5864.0,Valid,L6,721.0,Found,1997.0,27.2435,16.081,"(27.243500, 16.081000)"
5882,Dar al Gani 317,5865.0,Valid,L6,145.0,Found,1997.0,27.01333,16.1875,"(27.013330, 16.187500)"
5883,Dar al Gani 318,5866.0,Valid,H3,4236.0,Found,1997.0,27.14317,15.873,"(27.143170, 15.873000)"
5884,Dar al Gani 319,5867.0,Valid,Ureilite-pmict,740.0,Found,1997.0,27.028,16.35867,"(27.028000, 16.358670)"
5885,Dar al Gani 320,5868.0,Valid,L6,189.0,Found,1997.0,27.03383,16.326,"(27.033830, 16.326000)"
5886,Dar al Gani 321,5869.0,Valid,H5,213.0,Found,1997.0,27.09867,16.14133,"(27.098670, 16.141330)"
5887,Dar al Gani 322,5870.0,Valid,H4,1126.0,Found,1997.0,27.09917,16.14033,"(27.099170, 16.140330)"
5888,Dar al Gani 323,5871.0,Valid,L4,2711.0,Found,1997.0,28.3,15.7175,"(28.300000, 15.717500)"
5889,Dar al Gani 324,5872.0,Valid,H6,433.0,Found,1997.0,28.1815,15.64783,"(28.181500, 15.647830)"
5890,Dar al Gani 325,5873.0,Valid,H5,274.0,Found,1997.0,28.206,15.6355,"(28.206000, 15.635500)"
5891,Dar al Gani 326,5874.0,Valid,L6,386.0,Found,1997.0,27.839,15.877,"(27.839000, 15.877000)"
