,Name,ID,Status,Class,Mass (g),Fall,Year,Latitude,Longitude,GeoLocation
0,Aachen,1.0,Valid,L5,21.0,Observed,1880.0,50.775,6.08333,"(50.775000, 6.083330)"
1,Aarhus,2.0,Valid,H6,720.0,Observed,1951.0,56.18333,10.23333,"(56.183330, 10.233330)"
2,Abee,6.0,Valid,EH4,107000.0,Observed,1952.0,54.21667,-113.0,"(54.216670, -113.000000)"
3,Acapulco,10.0,Valid,Acapulcoite,1914.0,Observed,1976.0,16.88333,-99.9,"(16.883330, -99.900000)"
4,Achiras,370.0,Valid,L6,780.0,Observed,1902.0,-33.16667,-64.95,"(-33.166670, -64.950000)"
5,Adhi Kot,379.0,Valid,EH4,4239.0,Observed,1919.0,32.1,71.8,"(32.100000, 71.800000)"
6,Adzhi-Bogdo (stone),390.0,Valid,LL3-6,910.0,Observed,1949.0,44.83333,95.16667,"(44.833330, 95.166670)"
7,Agen,392.0,Valid,H5,30000.0,Observed,1814.0,44.21667,0.61667,"(44.216670, 0.616670)"
8,Aguada,398.0,Valid,L6,1620.0,Observed,1930.0,-31.6,-65.23333,"(-31.600000, -65.233330)"
9,Aguila Blanca,417.0,Valid,L,1440.0,Observed,1920.0,-30.86667,-64.55,"(-30.866670, -64.550000)"
10,Aioun el Atrouss,423.0,Valid,Diogenite-pm,1000.0,Observed,1974.0,16.39806,-9.57028,"(16.398060, -9.570280)"
11,Aïr,424.0,Valid,L6,24000.0,Observed,1925.0,19.08333,8.38333,"(19.083330, 8.383330)"
12,Akaba,426.0,Valid,L6,779.0,Observed,1949.0,29.51667,35.05,"(29.516670, 35.050000)"
13,Akbarpur,427.0,Valid,H4,1800.0,Observed,1838.0,29.71667,77.95,"(29.716670, 77.950000)"
14,Akwanga,432.0,Valid,H,3000.0,Observed,1959.0,8.91667,8.43333,"(8.916670, 8.433330)"
15,Akyumak,433.0,Valid,"Iron, IVA",50000.0,Observed,1981.0,39.91667,42.81667,"(39.916670, 42.816670)"
16,Al Rais,446.0,Valid,CR2-an,160.0,Observed,1957.0,24.41667,39.51667,"(24.416670, 39.516670)"
17,Al Zarnkh,447.0,Valid,LL5,700.0,Observed,2001.0,13.66033,28.96,"(13.660330, 28.960000)"
18,Alais,448.0,Valid,CI1,6000.0,Observed,1806.0,44.11667,4.08333,"(44.116670, 4.083330)"
19,Albareto,453.0,Valid,L/LL4,2000.0,Observed,1766.0,44.65,11.01667,"(44.650000, 11.016670)"
20,Alberta,454.0,Valid,L,625.0,Observed,1949.0,2.0,22.66667,"(2.000000, 22.666670)"
21,Alby sur Chéran,458.0,Valid,Eucrite-mmict,252.0,Observed,2002.0,45.82133,6.01533,"(45.821330, 6.015330)"
22,Aldsworth,461.0,Valid,LL5,700.0,Observed,1835.0,51.78333,-1.78333,"(51.783330, -1.783330)"
23,Aleppo,462.0,Valid,L6,3200.0,Observed,1873.0,36.23333,37.13333,"(36.233330, 37.133330)"
24,Alessandria,463.0,Valid,H5,908.0,Observed,1860.0,44.88333,8.75,"(44.883330, 8.750000)"
25,Alexandrovsky,465.0,Valid,H4,9251.0,Observed,1900.0,50.95,31.81667,"(50.950000, 31.816670)"
26,Alfianello,466.0,Valid,L6,228000.0,Observed,1883.0,45.26667,10.15,"(45.266670, 10.150000)"
27,Allegan,2276.0,Valid,H5,32000.0,Observed,1899.0,42.53333,-85.88333,"(42.533330, -85.883330)"
28,Allende,2278.0,Valid,CV3,2000000.0,Observed,1969.0,26.96667,-105.31667,"(26.966670, -105.316670)"
29,Almahata Sitta,48915.0,Valid,Ureilite-an,3950.0,Observed,2008.0,20.74575,32.41275,"(20.745750, 32.412750)"
30,Alta'ameem,2284.0,Valid,LL5,6000.0,Observed,1977.0,35.27333,44.21556,"(35.273330, 44.215560)"
31,Ambapur Nagla,2290.0,Valid,H5,6400.0,Observed,1895.0,27.66667,78.25,"(27.666670, 78.250000)"
32,Andhara,2294.0,Valid,Stone-uncl,2700.0,Observed,1880.0,26.58333,85.56667,"(26.583330, 85.566670)"
33,Andover,2295.0,Valid,L6,3200.0,Observed,1898.0,44.61667,-70.75,"(44.616670, -70.750000)"
34,Andreevka,2296.0,Valid,L3,600.0,Observed,1969.0,48.7,37.5,"(48.700000, 37.500000)"
35,Andura,2298.0,Valid,H6,17900.0,Observed,1939.0,20.88333,76.86667,"(20.883330, 76.866670)"
36,Angra dos Reis (stone),2302.0,Valid,Angrite,1500.0,Observed,1869.0,-22.96667,-44.31667,"(-22.966670, -44.316670)"
37,Ankober,2304.0,Valid,H4,6500.0,Observed,1942.0,9.53333,39.71667,"(9.533330, 39.716670)"
38,Anlong,2305.0,Valid,H5,2500.0,Observed,1971.0,25.15,105.18333,"(25.150000, 105.183330)"
39,Aomori,2313.0,Valid,L6,320.0,Observed,1984.0,40.81056,140.78556,"(40.810560, 140.785560)"
40,Appley Bridge,2318.0,Valid,LL6,15000.0,Observed,1914.0,53.58333,-2.71667,"(53.583330, -2.716670)"
41,Apt,2320.0,Valid,L6,3200.0,Observed,1803.0,43.86667,5.38333,"(43.866670, 5.383330)"
42,Arbol Solo,2325.0,Valid,H5,810.0,Observed,1954.0,-33.0,-66.0,"(-33.000000, -66.000000)"
43,Archie,2329.0,Valid,H6,5070.0,Observed,1932.0,38.5,-94.3,"(38.500000, -94.300000)"
44,Arroyo Aguiar,2340.0,Valid,H5,7450.0,Observed,1950.0,-31.41667,-60.66667,"(-31.416670, -60.666670)"
45,Asco,2345.0,Valid,H6,41.0,Observed,1805.0,42.45,9.03333,"(42.450000, 9.033330)"
46,Ash Creek,48954.0,Valid,L6,9500.0,Observed,2009.0,31.805,-97.01,"(31.805000, -97.010000)"
47,Ashdon,2346.0,Valid,L6,1300.0,Observed,1923.0,52.05,0.3,"(52.050000, 0.300000)"
48,Assisi,2353.0,Valid,H5,2000.0,Observed,1886.0,43.03333,12.55,"(43.033330, 12.550000)"
49,Atarra,4883.0,Valid,L4,1280.0,Observed,1920.0,25.25417,80.625,"(25.254170, 80.625000)"
50,Atemajac,4884.0,Valid,L6,94.2,Observed,1896.0,20.06667,-103.66667,"(20.066670, -103.666670)"
51,Athens,4885.0,Valid,LL6,265.0,Observed,1933.0,34.75,-87.0,"(34.750000, -87.000000)"
52,Atoka,4888.0,Valid,L6,1384.2,Observed,1945.0,34.31667,-96.15,"(34.316670, -96.150000)"
53,Aubres,4893.0,Valid,Aubrite,800.0,Observed,1836.0,44.38333,5.16667,"(44.383330, 5.166670)"
54,Aumale,4899.0,Valid,L6,50000.0,Observed,1865.0,36.16667,3.66667,"(36.166670, 3.666670)"
55,Aumieres,4900.0,Valid,L6,2000.0,Observed,1842.0,44.33333,3.23333,"(44.333330, 3.233330)"
56,Ausson,4903.0,Valid,L5,50000.0,Observed,1858.0,43.08333,0.58333,"(43.083330, 0.583330)"
57,Avanhandava,4905.0,Valid,H4,9330.0,Observed,1952.0,-21.46028,-49.95083,"(-21.460280, -49.950830)"
58,Avce,4906.0,Valid,"Iron, IIAB",1230.0,Observed,1908.0,46.0,13.5,"(46.000000, 13.500000)"
59,Avilez,4907.0,Valid,H,146.0,Observed,1855.0,25.0,-103.5,"(25.000000, -103.500000)"
60,Awere,4910.0,Valid,L4,134.0,Observed,1968.0,2.71667,32.83333,"(2.716670, 32.833330)"
61,Aztec,4913.0,Valid,L6,2830.0,Observed,1938.0,36.8,-108.0,"(36.800000, -108.000000)"
62,Bachmut,4917.0,Valid,L6,18000.0,Observed,1814.0,48.6,38.0,"(48.600000, 38.000000)"
63,Bahjoi,4922.0,Valid,"Iron, IAB-sLL",10322.0,Observed,1934.0,28.48333,78.5,"(28.483330, 78.500000)"
64,Bald Mountain,4925.0,Valid,L4,3700.0,Observed,1929.0,35.96667,-82.48333,"(35.966670, -82.483330)"
65,Baldwyn,4926.0,Valid,L6,345.0,Observed,1922.0,34.5,-88.66667,"(34.500000, -88.666670)"
66,Bali,4928.0,Valid,CV3,1000.0,Observed,1907.0,5.38333,16.38333,"(5.383330, 16.383330)"
67,Ban Rong Du,4934.0,Valid,"Iron, ungrouped",16700.0,Observed,1993.0,16.66667,101.18333,"(16.666670, 101.183330)"
68,Bandong,4935.0,Valid,LL6,11500.0,Observed,1871.0,-6.91667,107.6,"(-6.916670, 107.600000)"
69,Bansur,4936.0,Valid,L6,15000.0,Observed,1892.0,27.7,76.33333,"(27.700000, 76.333330)"
70,Banswal,4937.0,Valid,L5,14.0,Observed,1913.0,30.4,78.2,"(30.400000, 78.200000)"
71,Banten,4938.0,Valid,CM2,629.0,Observed,1933.0,-6.33333,106.0,"(-6.333330, 106.000000)"
72,Barbotan,4942.0,Valid,H5,6400.0,Observed,1790.0,43.95,-0.05,"(43.950000, -0.050000)"
73,Barea,4946.0,Valid,Mesosiderite-A1,3200.0,Observed,1842.0,42.38333,-2.5,"(42.383330, -2.500000)"
74,Barnaul,4947.0,Valid,H5,23.2,Observed,1904.0,52.73333,84.08333,"(52.733330, 84.083330)"
75,Barntrup,4948.0,Valid,LL4,17.0,Observed,1886.0,52.0,9.1,"(52.000000, 9.100000)"
76,Baroti,4949.0,Valid,L6,4500.0,Observed,1910.0,31.61667,76.8,"(31.616670, 76.800000)"
77,Barwell,4954.0,Valid,L5,44000.0,Observed,1965.0,52.56528,-1.33972,"(52.565280, -1.339720)"
78,Bassikounou,44876.0,Valid,H5,29560.0,Observed,2006.0,15.78333,-5.9,"(15.783330, -5.900000)"
79,Baszkówka,4957.0,Valid,L5,15500.0,Observed,1994.0,52.03333,20.93583,"(52.033330, 20.935830)"
80,Bath,4974.0,Valid,H4,21000.0,Observed,1892.0,45.41667,-98.31667,"(45.416670, -98.316670)"
81,Bath Furnace,4975.0,Valid,L6,86000.0,Observed,1902.0,38.25,-83.75,"(38.250000, -83.750000)"
82,Battle Mountain,56133.0,Valid,L6,2900.0,Observed,2012.0,40.66813,-117.18913,"(40.668130, -117.189130)"
83,Bawku,4976.0,Valid,LL5,1557.0,Observed,1989.0,11.08333,-0.18333,"(11.083330, -0.183330)"
84,Baxter,4977.0,Valid,L6,611.0,Observed,1916.0,36.75,-93.5,"(36.750000, -93.500000)"
85,Beardsley,4984.0,Valid,H5,16000.0,Observed,1929.0,39.8,-101.2,"(39.800000, -101.200000)"
86,Beaver Creek,4986.0,Valid,H5,14000.0,Observed,1893.0,51.16667,-117.33333,"(51.166670, -117.333330)"
87,Beddgelert,4993.0,Valid,H5,794.0,Observed,1949.0,53.01667,-4.1,"(53.016670, -4.100000)"
88,Bells,5005.0,Valid,C2-ung,375.0,Observed,1961.0,33.6,-96.46667,"(33.600000, -96.466670)"
89,Benares (a),5011.0,Valid,LL4,3700.0,Observed,1798.0,25.36667,82.91667,"(25.366670, 82.916670)"
90,Benguerir,30443.0,Valid,LL6,25000.0,Observed,2004.0,32.25,-8.15,"(32.250000, -8.150000)"
91,Beni M'hira,5018.0,Valid,L6,19000.0,Observed,2001.0,32.86667,10.8,"(32.866670, 10.800000)"
92,Benld,5021.0,Valid,H6,1770.5,Observed,1938.0,39.08333,-89.15,"(39.083330, -89.150000)"
93,Benoni,5023.0,Valid,H6,3880.0,Observed,1943.0,-26.16667,28.41667,"(-26.166670, 28.416670)"
94,Bensour,5024.0,Valid,LL6,45000.0,Observed,2002.0,30.0,-7.0,"(30.000000, -7.000000)"
95,Benton,5026.0,Valid,LL6,2840.0,Observed,1949.0,45.95,-67.55,"(45.950000, -67.550000)"
96,Berduc,48975.0,Valid,L6,270.0,Observed,2008.0,-31.91,-58.32833,"(-31.910000, -58.328330)"
97,Béréba,5028.0,Valid,Eucrite-mmict,18000.0,Observed,1924.0,11.65,-3.65,"(11.650000, -3.650000)"
98,Berlanguillas,5029.0,Valid,L6,1440.0,Observed,1811.0,41.68333,-3.8,"(41.683330, -3.800000)"
99,Berthoud,47355.0,Valid,Eucrite-mmict,960.0,Observed,2004.0,40.30583,-105.02325,"(40.305830, -105.023250)"
100,Bethlehem,5032.0,Valid,H,13.9,Observed,1859.0,42.53333,-73.83333,"(42.533330, -73.833330)"
101,Beuste,5034.0,Valid,L5,2000.0,Observed,1859.0,43.21667,-0.23333,"(43.216670, -0.233330)"
102,Beyrout,5035.0,Valid,LL3.8,1100.0,Observed,1921.0,33.88333,35.5,"(33.883330, 35.500000)"
103,Bhagur,5037.0,Valid,L6,18.0,Observed,1877.0,20.88333,74.83333,"(20.883330, 74.833330)"
104,Bhawad,36591.0,Valid,LL6,678.0,Observed,2002.0,26.50833,73.11528,"(26.508330, 73.115280)"
105,Bherai,5039.0,Valid,L6,100.0,Observed,1893.0,20.83333,71.46667,"(20.833330, 71.466670)"
106,Bhola,5040.0,Valid,LL3-6,1047.0,Observed,1940.0,22.68333,90.65,"(22.683330, 90.650000)"
107,Bholghati,5041.0,Valid,Howardite,2500.0,Observed,1905.0,22.08333,86.9,"(22.083330, 86.900000)"
108,Bialystok,5042.0,Valid,Eucrite-pmict,4000.0,Observed,1827.0,53.1,23.2,"(53.100000, 23.200000)"
109,Bielokrynitschie,5043.0,Valid,H4,1900.0,Observed,1887.0,50.13333,27.16667,"(50.133330, 27.166670)"
110,Bilanga,5045.0,Valid,Diogenite,25000.0,Observed,1999.0,12.45,-0.08333,"(12.450000, -0.083330)"
111,Binningup,5051.0,Valid,H5,488.1,Observed,1984.0,-33.15639,115.67639,"(-33.156390, 115.676390)"
112,Birni N'konni,5056.0,Valid,H4,560.0,Observed,1923.0,13.76667,5.3,"(13.766670, 5.300000)"
113,Bishopville,5059.0,Valid,Aubrite,6000.0,Observed,1843.0,34.16667,-80.28333,"(34.166670, -80.283330)"
114,Bishunpur,5060.0,Valid,LL3.15,1039.0,Observed,1895.0,25.38333,82.6,"(25.383330, 82.600000)"
115,Bjelaja Zerkov,5063.0,Valid,H6,1850.0,Observed,1796.0,49.78333,30.16667,"(49.783330, 30.166670)"
116,Bjurböle,5064.0,Valid,L/LL4,330000.0,Observed,1899.0,60.4,25.8,"(60.400000, 25.800000)"
117,Black Moshannan Park,5065.0,Valid,L5,705.0,Observed,1941.0,40.91667,-78.08333,"(40.916670, -78.083330)"
118,Blackwell,5068.0,Valid,L5,2381.0,Observed,1906.0,36.83333,-97.33333,"(36.833330, -97.333330)"
119,Blanket,5071.0,Valid,L6,5100.0,Observed,1909.0,31.83333,-98.83333,"(31.833330, -98.833330)"
120,Blansko,5072.0,Valid,H6,470.0,Observed,1833.0,49.36667,16.63333,"(49.366670, 16.633330)"
121,Bloomington,5076.0,Valid,LL6,67.8,Observed,1938.0,40.48,-89.00417,"(40.480000, -89.004170)"
122,Bo Xian,5090.0,Valid,LL3.9,7500.0,Observed,1977.0,33.83333,115.83333,"(33.833330, 115.833330)"
123,Bocas,5093.0,Valid,L6,56.0,Observed,1804.0,23.0,-102.0,"(23.000000, -102.000000)"
124,Bogou,5097.0,Valid,"Iron, IAB-MG",8800.0,Observed,1962.0,12.5,0.7,"(12.500000, 0.700000)"
125,Boguslavka,5098.0,Valid,"Iron, IIAB",256000.0,Observed,1916.0,44.55,131.63333,"(44.550000, 131.633330)"
126,Borgo San Donino,5110.0,Valid,LL6,1676.0,Observed,1808.0,44.86667,10.05,"(44.866670, 10.050000)"
127,Bori,5111.0,Valid,L6,8600.0,Observed,1894.0,21.95,78.03333,"(21.950000, 78.033330)"
128,Boriskino,5112.0,Valid,CM2,1342.0,Observed,1930.0,54.23333,52.48333,"(54.233330, 52.483330)"
129,Borkut,5113.0,Valid,L5,7000.0,Observed,1852.0,48.15,24.28333,"(48.150000, 24.283330)"
130,Borodino,5114.0,Valid,H5,500.0,Observed,1812.0,55.46667,35.86667,"(55.466670, 35.866670)"
131,Botschetschki,5117.0,Valid,L4,614.0,Observed,1823.0,51.33333,33.88333,"(51.333330, 33.883330)"
132,Boumdeid (2003),57168.0,Valid,L6,190.0,Observed,2003.0,17.71067,-11.3715,"(17.710670, -11.371500)"
133,Boumdeid (2011),57167.0,Valid,L6,3599.0,Observed,2011.0,17.17493,-11.34133,"(17.174930, -11.341330)"
134,Bovedy,5121.0,Valid,L3,5460.0,Observed,1969.0,54.56667,-6.33333,"(54.566670, -6.333330)"
135,Bradford Woods,5128.0,Valid,L,762.0,Observed,1886.0,40.5,-80.08333,"(40.500000, -80.083330)"
136,Braunau,5133.0,Valid,"Iron, IIAB",39000.0,Observed,1847.0,50.6,16.3,"(50.600000, 16.300000)"
137,Breitscheid,5134.0,Valid,H5,1500.0,Observed,1956.0,50.66694,8.18361,"(50.666940, 8.183610)"
138,Bremervörde,5135.0,Valid,H/L3.9,7250.0,Observed,1855.0,53.4,9.1,"(53.400000, 9.100000)"
139,Brient,5140.0,Valid,Eucrite-pmict,219.0,Observed,1933.0,52.13333,59.31667,"(52.133330, 59.316670)"
140,Bruderheim,5156.0,Valid,L6,303000.0,Observed,1960.0,53.9,-112.88333,"(53.900000, -112.883330)"
141,Bukhara,30448.0,Valid,CV3,5300.0,Observed,2001.0,39.77978,64.60035,"(39.779780, 64.600350)"
142,Bunburra Rockhole,48653.0,Valid,Eucrite,324.0,Observed,2007.0,-31.35,129.19,"(-31.350000, 129.190000)"
143,Bununu,5165.0,Valid,Howardite,357.0,Observed,1942.0,10.01667,9.58333,"(10.016670, 9.583330)"
144,Bur-Gheluai,5169.0,Valid,H5,120000.0,Observed,1919.0,5.0,48.0,"(5.000000, 48.000000)"
145,Burnwell,5175.0,Valid,H4-an,1504.0,Observed,1990.0,37.62194,-82.23722,"(37.621940, -82.237220)"
146,Bursa,5177.0,Valid,L6,25000.0,Observed,1946.0,40.2,29.23333,"(40.200000, 29.233330)"
147,Buschhof,5178.0,Valid,L6,5000.0,Observed,1863.0,46.45,25.78333,"(46.450000, 25.783330)"
148,Bustee,5181.0,Valid,Aubrite,1500.0,Observed,1852.0,26.78333,82.83333,"(26.783330, 82.833330)"
149,Butsura,5183.0,Valid,H6,29000.0,Observed,1861.0,27.08333,84.08333,"(27.083330, 84.083330)"
150,Buzzard Coulee,48654.0,Valid,H4,41000.0,Observed,2008.0,52.996,-109.84817,"(52.996000, -109.848170)"
151,Cabezo de Mayo,5185.0,Valid,L/LL6,25000.0,Observed,1870.0,37.98333,-1.16667,"(37.983330, -1.166670)"
152,Cabin Creek,5186.0,Valid,"Iron, IIIAB",48500.0,Observed,1886.0,35.5,-93.5,"(35.500000, -93.500000)"
153,Cacak,5187.0,Valid,OC,212.0,Observed,1919.0,43.83889,20.33333,"(43.838890, 20.333330)"
154,Cali,45976.0,Valid,H/L4,478.0,Observed,2007.0,3.405,-76.51,"(3.405000, -76.510000)"
155,Calivo,5200.0,Valid,Stone-uncl,2400.0,Observed,1916.0,11.75,122.33333,"(11.750000, 122.333330)"
156,Campos Sales,5249.0,Valid,L5,23680.0,Observed,1991.0,-7.03333,-40.16667,"(-7.033330, -40.166670)"
157,Çanakkale,5250.0,Valid,L6,4000.0,Observed,1964.0,39.8,26.6,"(39.800000, 26.600000)"
158,Cañellas,5251.0,Valid,H4,945.0,Observed,1861.0,41.25,1.66667,"(41.250000, 1.666670)"
159,Cangas de Onis,5252.0,Valid,H5,34000.0,Observed,1866.0,43.38333,-5.15,"(43.383330, -5.150000)"
160,Canon City,5253.0,Valid,H6,1400.0,Observed,1973.0,38.47028,-105.24139,"(38.470280, -105.241390)"
161,Cape Girardeau,5260.0,Valid,H6,2300.0,Observed,1846.0,37.26667,-89.58333,"(37.266670, -89.583330)"
162,Capilla del Monte,5264.0,Valid,H6,750.0,Observed,1934.0,-30.88333,-64.55,"(-30.883330, -64.550000)"
163,Carancas,45817.0,Valid,H4-5,342.0,Observed,2007.0,-16.66444,-69.04389,"(-16.664440, -69.043890)"
164,Caratash,5265.0,Valid,LL6,8.0,Observed,1902.0,38.5,27.0,"(38.500000, 27.000000)"
165,Castalia,5291.0,Valid,H5,7300.0,Observed,1874.0,36.08333,-78.06667,"(36.083330, -78.066670)"
166,Castine,5293.0,Valid,L6,94.0,Observed,1848.0,44.38333,-68.75,"(44.383330, -68.750000)"
167,Castrovillari,5295.0,Valid,Stone-uncl,15000.0,Observed,1583.0,39.8,16.2,"(39.800000, 16.200000)"
168,Caswell County,5296.0,Valid,OC,1360.0,Observed,1810.0,36.5,-79.25,"(36.500000, -79.250000)"
169,Ceniceros,5306.0,Valid,L3.7,1025.0,Observed,1988.0,26.46667,-105.23333,"(26.466670, -105.233330)"
170,Centerville,5307.0,Valid,H5,45.6,Observed,1956.0,43.2,-96.91667,"(43.200000, -96.916670)"
171,Cereseto,5308.0,Valid,H5,6460.0,Observed,1840.0,45.08333,8.3,"(45.083330, 8.300000)"
172,Chadong,5313.0,Valid,L6,3700.0,Observed,1998.0,28.53333,109.31667,"(28.533330, 109.316670)"
173,Chail,5314.0,Valid,H6,0.5,Observed,1814.0,25.36667,81.66667,"(25.366670, 81.666670)"
174,Chainpur,5315.0,Valid,LL3.4,8200.0,Observed,1907.0,25.85,83.48333,"(25.850000, 83.483330)"
175,Chajari,5316.0,Valid,L5,18300.0,Observed,1933.0,-30.78333,-58.05,"(-30.783330, -58.050000)"
176,Chandakapur,5320.0,Valid,L5,8800.0,Observed,1838.0,20.26667,76.01667,"(20.266670, 76.016670)"
177,Chandpur,5321.0,Valid,L6,1100.0,Observed,1885.0,27.28333,79.05,"(27.283330, 79.050000)"
178,Changde,5322.0,Valid,H5,1810.0,Observed,1977.0,29.08333,111.75,"(29.083330, 111.750000)"
179,Chantonnay,5325.0,Valid,L6,31500.0,Observed,1812.0,46.68333,1.05,"(46.683330, 1.050000)"
180,Charlotte,5328.0,Valid,"Iron, IVA",4300.0,Observed,1835.0,36.16667,-87.33333,"(36.166670, -87.333330)"
181,Charsonville,5329.0,Valid,H6,27000.0,Observed,1810.0,47.93333,1.56667,"(47.933330, 1.566670)"
182,Charwallas,5330.0,Valid,H6,12000.0,Observed,1834.0,29.48333,75.5,"(29.483330, 75.500000)"
183,Chassigny,5331.0,Valid,Martian (chassignite),4000.0,Observed,1815.0,47.71667,5.36667,"(47.716670, 5.366670)"
184,Château-Renard,5332.0,Valid,L6,30000.0,Observed,1841.0,47.93333,2.91667,"(47.933330, 2.916670)"
185,Chaves,5334.0,Valid,Howardite,2945.0,Observed,1925.0,41.93333,-7.46667,"(41.933330, -7.466670)"
186,Chela,5338.0,Valid,H4,2936.0,Observed,1988.0,-3.66667,32.5,"(-3.666670, 32.500000)"
187,Chelyabinsk,57165.0,Valid,LL5,100000.0,Observed,2013.0,54.81667,61.11667,"(54.816670, 61.116670)"
188,Chergach ,47347.0,Valid,H5,100000.0,Observed,2007.0,23.69639,-5.01472,"(23.696390, -5.014720)"
189,Chernyi Bor,5339.0,Valid,H4,6000.0,Observed,1964.0,53.7,30.1,"(53.700000, 30.100000)"
190,Cherokee Springs,5340.0,Valid,LL6,8400.0,Observed,1933.0,35.03333,-81.88333,"(35.033330, -81.883330)"
191,Chervettaz,5341.0,Valid,L5,705.0,Observed,1901.0,46.55,6.81667,"(46.550000, 6.816670)"
192,Chervony Kut,5342.0,Valid,Eucrite-mmict,1700.0,Observed,1939.0,50.83333,34.0,"(50.833330, 34.000000)"
193,Chetrinahatti,5344.0,Valid,Stone-uncl,72.0,Observed,1880.0,14.5,76.5,"(14.500000, 76.500000)"
194,Chiang Khan,5345.0,Valid,H6,367.0,Observed,1981.0,17.9,101.63333,"(17.900000, 101.633330)"
195,Chicora,5349.0,Valid,LL6,303.0,Observed,1938.0,40.93333,-79.73333,"(40.933330, -79.733330)"
196,Chisenga,5355.0,Valid,"Iron, IIIAB",3920.0,Observed,1988.0,-10.05944,33.395,"(-10.059440, 33.395000)"
197,Chitenay,5357.0,Valid,L6,4000.0,Observed,1978.0,47.47083,0.97667,"(47.470830, 0.976670)"
198,Cilimus,5364.0,Valid,L5,1600.0,Observed,1979.0,-6.95,108.1,"(-6.950000, 108.100000)"
199,Claxton,5374.0,Valid,L6,1455.0,Observed,1984.0,32.1025,-81.87278,"(32.102500, -81.872780)"
200,Colby (Wisconsin),5395.0,Valid,L6,104000.0,Observed,1917.0,44.9,-90.28333,"(44.900000, -90.283330)"
201,Cold Bokkeveld,5397.0,Valid,CM2,5200.0,Observed,1838.0,-33.13333,19.38333,"(-33.133330, 19.383330)"
202,Coleman,5401.0,Valid,L6,469.0,Observed,1994.0,43.76111,-84.50778,"(43.761110, -84.507780)"
203,Collescipoli,5403.0,Valid,H5,5000.0,Observed,1890.0,42.53333,12.61667,"(42.533330, 12.616670)"
204,Conquista,5418.0,Valid,H4,20350.0,Observed,1965.0,-19.85,-47.55,"(-19.850000, -47.550000)"
205,Cosina,5451.0,Valid,H5,1200.0,Observed,1844.0,21.16667,-100.86667,"(21.166670, -100.866670)"
206,Cranganore,5465.0,Valid,L6,1460.0,Observed,1917.0,10.2,76.26667,"(10.200000, 76.266670)"
207,Crescent,5470.0,Valid,CM2,78.4,Observed,1936.0,35.95,-97.58333,"(35.950000, -97.583330)"
208,Cronstad,5474.0,Valid,H5,3650.0,Observed,1877.0,-27.7,27.3,"(-27.700000, 27.300000)"
209,Cross Roads,5476.0,Valid,H5,167.0,Observed,1892.0,35.63333,-78.13333,"(35.633330, -78.133330)"
210,Crumlin,5477.0,Valid,L5,4255.0,Observed,1902.0,54.61667,-6.21667,"(54.616670, -6.216670)"
211,Cumberland Falls,5496.0,Valid,Aubrite,17000.0,Observed,1919.0,36.83333,-84.35,"(36.833330, -84.350000)"
212,Cynthiana,5500.0,Valid,L/LL4,6000.0,Observed,1877.0,38.4,-84.25,"(38.400000, -84.250000)"
213,Dahmani,5504.0,Valid,LL6,18000.0,Observed,1981.0,35.61667,8.83333,"(35.616670, 8.833330)"
214,Dandapur,5511.0,Valid,L6,5650.0,Observed,1878.0,26.91667,83.96667,"(26.916670, 83.966670)"
215,Daniel's Kuil,5513.0,Valid,EL6,1064.0,Observed,1868.0,-28.2,24.56667,"(-28.200000, 24.566670)"
216,Danville,5514.0,Valid,L6,2000.0,Observed,1868.0,34.4,-87.06667,"(34.400000, -87.066670)"
217,Darmstadt,6603.0,Valid,H5,100.0,Observed,1804.0,49.86667,8.65,"(49.866670, 8.650000)"
218,Dashoguz,6604.0,Valid,H5,7000.0,Observed,1998.0,41.98444,59.685,"(41.984440, 59.685000)"
219,Daule,51559.0,Valid,L5,6580.0,Observed,2008.0,-1.87089,-79.95756,"(-1.870890, -79.957560)"
220,De Cewsville,6621.0,Valid,H6,340.0,Observed,1887.0,43.0,-80.0,"(43.000000, -80.000000)"
221,Deal,6634.0,Valid,L6,28.0,Observed,1829.0,40.25,-74.0,"(40.250000, -74.000000)"
222,Delhi,6642.0,Valid,L5,0.8,Observed,1897.0,28.56667,77.25,"(28.566670, 77.250000)"
223,Demina,6649.0,Valid,L6,16400.0,Observed,1911.0,51.46667,84.76667,"(51.466670, 84.766670)"
224,Denver,6660.0,Valid,L6,230.0,Observed,1967.0,39.7825,-104.93056,"(39.782500, -104.930560)"
225,Dergaon,6664.0,Valid,H5,12500.0,Observed,2001.0,26.68333,93.86667,"(26.683330, 93.866670)"
226,Desuri,6693.0,Valid,H6,25400.0,Observed,1962.0,25.73333,73.61667,"(25.733330, 73.616670)"
227,Devgaon,6694.0,Valid,H3.8,12000.0,Observed,2001.0,19.0,81.0,"(19.000000, 81.000000)"
228,Devri-Khera,6696.0,Valid,L6,1140.0,Observed,1994.0,24.225,76.525,"(24.225000, 76.525000)"
229,Dhajala,6698.0,Valid,H3.8,45000.0,Observed,1976.0,22.37778,71.42722,"(22.377780, 71.427220)"
230,Dharwar,6699.0,Valid,OC,1800.0,Observed,1848.0,14.88333,75.6,"(14.883330, 75.600000)"
231,Dhurmsala,7640.0,Valid,LL6,32000.0,Observed,1860.0,32.23333,76.46667,"(32.233330, 76.466670)"
232,Didim,47350.0,Valid,H3-5,3396.0,Observed,2007.0,37.35172,27.32997,"(37.351720, 27.329970)"
233,Diep River,7642.0,Valid,L6,1000.0,Observed,1906.0,-33.75,18.56667,"(-33.750000, 18.566670)"
234,Distrito Quebracho,7649.0,Valid,H4,400.0,Observed,1957.0,-31.88333,-60.46667,"(-31.883330, -60.466670)"
235,Djati-Pengilon,7652.0,Valid,H6,166000.0,Observed,1884.0,-7.5,111.5,"(-7.500000, 111.500000)"
236,Djermaia,7656.0,Valid,H,3950.0,Observed,1961.0,12.73333,15.05,"(12.733330, 15.050000)"
237,Djoumine,7657.0,Valid,H5-6,10000.0,Observed,1999.0,36.95,9.55,"(36.950000, 9.550000)"
238,Dokachi,7658.0,Valid,H5,3840.0,Observed,1903.0,23.5,90.33333,"(23.500000, 90.333330)"
239,Dolgovoli,7659.0,Valid,L6,1600.0,Observed,1864.0,50.75,25.3,"(50.750000, 25.300000)"
240,Domanitch,7661.0,Valid,L5,438.0,Observed,1907.0,40.0,29.0,"(40.000000, 29.000000)"
241,Dong Ujimqin Qi,7706.0,Valid,Mesosiderite,128800.0,Observed,1995.0,45.5,119.03333,"(45.500000, 119.033330)"
242,Donga Kohrod,7707.0,Valid,H6,230.0,Observed,1899.0,21.86667,82.45,"(21.866670, 82.450000)"
243,Dongtai,7708.0,Valid,LL6,5500.0,Observed,1970.0,32.91667,120.78333,"(32.916670, 120.783330)"
244,Doroninsk,7718.0,Valid,H5-7,3891.0,Observed,1805.0,51.2,112.3,"(51.200000, 112.300000)"
245,Dosso,7722.0,Valid,L6,1250.0,Observed,1962.0,13.05,3.16667,"(13.050000, 3.166670)"
246,Douar Mghila,7723.0,Valid,LL6,1161.0,Observed,1932.0,32.33333,-6.3,"(32.333330, -6.300000)"
247,Dowa,7725.0,Valid,Stone-uncl,642.0,Observed,1976.0,-13.66667,33.91667,"(-13.666670, 33.916670)"
248,Drake Creek,7728.0,Valid,L6,5000.0,Observed,1827.0,36.4,-86.5,"(36.400000, -86.500000)"
249,Dresden (Ontario),7731.0,Valid,H6,47700.0,Observed,1939.0,42.52,-82.26,"(42.520000, -82.260000)"
250,Dubrovnik,7736.0,Valid,L3-6,1900.0,Observed,1951.0,42.45833,18.44167,"(42.458330, 18.441670)"
251,Dunbogan,7743.0,Valid,L6,30.0,Observed,1999.0,-31.66667,152.83333,"(-31.666670, 152.833330)"
252,Dundrum,7745.0,Valid,H5,2270.0,Observed,1865.0,52.55,-8.03333,"(52.550000, -8.033330)"
253,Durala,7750.0,Valid,L6,13200.0,Observed,1815.0,30.3,76.63333,"(30.300000, 76.633330)"
254,Duruma,7752.0,Valid,L6,577.0,Observed,1853.0,-4.0,39.5,"(-4.000000, 39.500000)"
255,Duwun,7754.0,Valid,L6,2117.0,Observed,1943.0,33.43333,127.26667,"(33.433330, 127.266670)"
256,Dwaleni,7755.0,Valid,H4-6,3230.0,Observed,1970.0,-27.2,31.31667,"(-27.200000, 31.316670)"
257,Dyalpur,7757.0,Valid,Ureilite,300.0,Observed,1872.0,26.25,82.0,"(26.250000, 82.000000)"
258,Dyarrl Island,7758.0,Valid,Mesosiderite-A1,188.0,Observed,1933.0,-3.0,151.0,"(-3.000000, 151.000000)"
259,Eagle,7760.0,Valid,EL6,10000.0,Observed,1947.0,40.78167,-96.47167,"(40.781670, -96.471670)"
260,Ehole,7774.0,Valid,H5,2400.0,Observed,1961.0,-17.3,15.83333,"(-17.300000, 15.833330)"
261,Eichstädt,7775.0,Valid,H5,3000.0,Observed,1785.0,48.9,11.21667,"(48.900000, 11.216670)"
262,Ekeby,7776.0,Valid,H4,3336.0,Observed,1939.0,56.03333,13.0,"(56.033330, 13.000000)"
263,Ekh Khera,7777.0,Valid,H6,840.0,Observed,1916.0,28.26667,78.78333,"(28.266670, 78.783330)"
264,El Idrissia,7807.0,Valid,L6,10000.0,Observed,1989.0,34.41667,3.25,"(34.416670, 3.250000)"
265,El Paso de Aguila,45977.0,Valid,H5,17226.0,Observed,1977.0,25.37,-97.37,"(25.370000, -97.370000)"
266,El Tigre,7819.0,Valid,L6,5000.0,Observed,1993.0,19.96722,-103.05167,"(19.967220, -103.051670)"
267,Elbert,7822.0,Valid,LL6,680.5,Observed,1998.0,39.24667,-104.58817,"(39.246670, -104.588170)"
268,Elbogen,7823.0,Valid,"Iron, IID",107000.0,Observed,1399.0,50.18333,12.73333,"(50.183330, 12.733330)"
269,Elenovka,7824.0,Valid,L5,54640.0,Observed,1951.0,47.83333,37.66667,"(47.833330, 37.666670)"
270,Ellemeet,10019.0,Valid,Diogenite,1470.0,Observed,1925.0,51.75,4.0,"(51.750000, 4.000000)"
271,Emmaville,10033.0,Valid,Eucrite-mmict,127.0,Observed,1900.0,-29.46667,151.61667,"(-29.466670, 151.616670)"
272,Enshi,10038.0,Valid,H5,8000.0,Observed,1974.0,30.3,109.5,"(30.300000, 109.500000)"
273,Ensisheim,10039.0,Valid,LL6,127000.0,Observed,1491.0,47.86667,7.35,"(47.866670, 7.350000)"
274,Épinal,10041.0,Valid,H5,277.0,Observed,1822.0,48.18333,6.46667,"(48.183330, 6.466670)"
275,Erakot,10042.0,Valid,CM2,113.0,Observed,1940.0,19.03333,81.89167,"(19.033330, 81.891670)"
276,Erevan,10043.0,Valid,Howardite,107.2,Observed,1911.0,40.3,44.5,"(40.300000, 44.500000)"
277,Ergheo,10044.0,Valid,L5,20000.0,Observed,1889.0,1.16667,44.16667,"(1.166670, 44.166670)"
278,Erxleben,10049.0,Valid,H6,2250.0,Observed,1812.0,52.21667,11.25,"(52.216670, 11.250000)"
279,Esnandes,10051.0,Valid,L6,1500.0,Observed,1837.0,46.25,-1.1,"(46.250000, -1.100000)"
280,Essebi,10055.0,Valid,C2-ung,500.0,Observed,1957.0,2.88333,30.83333,"(2.883330, 30.833330)"
281,Estherville,10059.0,Valid,Mesosiderite-A3/4,320000.0,Observed,1879.0,43.41667,-94.83333,"(43.416670, -94.833330)"
282,Farmington,10074.0,Valid,L5,89400.0,Observed,1890.0,39.75,-97.03333,"(39.750000, -97.033330)"
283,Farmville,10075.0,Valid,H4,56000.0,Observed,1934.0,35.55,-77.53333,"(35.550000, -77.533330)"
284,Favars,10078.0,Valid,H5,1500.0,Observed,1844.0,44.38333,2.81667,"(44.383330, 2.816670)"
285,Fayetteville,10079.0,Valid,H4,2360.0,Observed,1934.0,36.05,-94.16667,"(36.050000, -94.166670)"
286,Feid Chair,10080.0,Valid,H4,380.0,Observed,1875.0,36.88333,8.45,"(36.883330, 8.450000)"
287,Felix,10081.0,Valid,CO3.3,3200.0,Observed,1900.0,32.53333,-87.16667,"(32.533330, -87.166670)"
288,Fenghsien-Ku,10086.0,Valid,H5,82.0,Observed,1924.0,34.6,116.75,"(34.600000, 116.750000)"
289,Ferguson,10088.0,Valid,OC,220.0,Observed,1889.0,36.1,-81.41667,"(36.100000, -81.416670)"
290,Fermo,10091.0,Valid,H3-5,10200.0,Observed,1996.0,43.18111,13.75333,"(43.181110, 13.753330)"
291,Fisher,10107.0,Valid,L6,17600.0,Observed,1894.0,47.81667,-96.85,"(47.816670, -96.850000)"
292,Florence,10111.0,Valid,H3,3640.0,Observed,1922.0,30.83333,-97.76667,"(30.833330, -97.766670)"
293,Forest City,10119.0,Valid,H5,152000.0,Observed,1890.0,43.25,-93.66667,"(43.250000, -93.666670)"
294,Forest Vale,10120.0,Valid,H4,26000.0,Observed,1942.0,-33.35,146.85833,"(-33.350000, 146.858330)"
295,Forksville,10123.0,Valid,L6,6067.0,Observed,1924.0,36.78333,-78.08333,"(36.783330, -78.083330)"
296,Forsbach,10163.0,Valid,H6,240.0,Observed,1900.0,50.95,7.31667,"(50.950000, 7.316670)"
297,Forsyth,10164.0,Valid,L6,16300.0,Observed,1829.0,33.01667,-83.96667,"(33.016670, -83.966670)"
298,Frankfort (stone),10177.0,Valid,Howardite,650.0,Observed,1868.0,34.48333,-87.83333,"(34.483330, -87.833330)"
299,Fuhe,52412.0,Valid,L5,23000.0,Observed,1945.0,31.47556,113.56694,"(31.475560, 113.566940)"
300,Fukutomi,10836.0,Valid,L5,11620.0,Observed,1882.0,33.18333,130.2,"(33.183330, 130.200000)"
301,Futtehpur,10839.0,Valid,L6,4000.0,Observed,1822.0,25.95,80.81667,"(25.950000, 80.816670)"
302,Fuyang,10840.0,Valid,Stone-uncl,2500.0,Observed,1977.0,32.9,115.9,"(32.900000, 115.900000)"
303,Galapian,10846.0,Valid,H6,132.7,Observed,1826.0,44.3,0.4,"(44.300000, 0.400000)"
304,Galim (a),10848.0,Valid,LL6,36.1,Observed,1952.0,7.05,12.43333,"(7.050000, 12.433330)"
305,Galim (b),10849.0,Valid,EH3/4-an,28.0,Observed,1952.0,7.05,12.43333,"(7.050000, 12.433330)"
306,Galkiv,10850.0,Valid,H4,5000.0,Observed,1995.0,51.68333,30.78333,"(51.683330, 30.783330)"
307,Gambat,10851.0,Valid,L6,6400.0,Observed,1897.0,27.35,68.53333,"(27.350000, 68.533330)"
308,Garhi Yasin,10860.0,Valid,"Iron, IIE",380.0,Observed,1917.0,27.88333,68.53333,"(27.883330, 68.533330)"
309,Garland,10861.0,Valid,Diogenite-pm,102.0,Observed,1950.0,41.68333,-112.13333,"(41.683330, -112.133330)"
310,Gashua,44882.0,Valid,L6,4162.0,Observed,1984.0,12.85,11.03333,"(12.850000, 11.033330)"
311,Geidam,10870.0,Valid,H5,725.0,Observed,1950.0,12.91667,11.91667,"(12.916670, 11.916670)"
312,Gifu,10914.0,Valid,L6,14290.0,Observed,1909.0,35.53333,136.88333,"(35.533330, 136.883330)"
313,Girgenti,10917.0,Valid,L6,18000.0,Observed,1853.0,37.31667,13.56667,"(37.316670, 13.566670)"
314,Git-Git,10919.0,Valid,L6,480.0,Observed,1947.0,9.6,9.91667,"(9.600000, 9.916670)"
315,Glanerbrug,10923.0,Valid,L/LL5,670.0,Observed,1990.0,52.2,6.86667,"(52.200000, 6.866670)"
316,Glanggang,10924.0,Valid,H5-6,1303.0,Observed,1939.0,-7.25,107.7,"(-7.250000, 107.700000)"
317,Glasatovo,10926.0,Valid,H4,152000.0,Observed,1918.0,57.35,37.61667,"(57.350000, 37.616670)"
318,Glatton,10930.0,Valid,L6,767.0,Observed,1991.0,52.45972,-0.3,"(52.459720, -0.300000)"
319,Gnadenfrei,10936.0,Valid,H5,1750.0,Observed,1879.0,50.66667,16.76667,"(50.666670, 16.766670)"
320,Gopalpur,10948.0,Valid,H6,1600.0,Observed,1865.0,24.23333,89.05,"(24.233330, 89.050000)"
321,Gorlovka,10949.0,Valid,H3.7,3618.0,Observed,1974.0,48.28333,38.08333,"(48.283330, 38.083330)"
322,Granes,10956.0,Valid,L6,9000.0,Observed,1964.0,42.9,2.25,"(42.900000, 2.250000)"
323,Grefsheim,11196.0,Valid,L5,45.5,Observed,1976.0,60.66667,11.0,"(60.666670, 11.000000)"
324,Grimsby,50911.0,Valid,H5,215.0,Observed,2009.0,43.2,-79.61667,"(43.200000, -79.616670)"
325,Grosnaja,11206.0,Valid,CV3,3500.0,Observed,1861.0,43.66667,45.38333,"(43.666670, 45.383330)"
326,Gross-Divina,11207.0,Valid,H5,10500.0,Observed,1837.0,49.26667,18.71667,"(49.266670, 18.716670)"
327,Grossliebenthal,11208.0,Valid,L6,8000.0,Observed,1881.0,46.35,30.58333,"(46.350000, 30.583330)"
328,Grüneberg,11426.0,Valid,H4,1000.0,Observed,1841.0,51.93333,15.5,"(51.933330, 15.500000)"
329,Grzempach,11429.0,Valid,H5,690.0,Observed,1910.0,52.86667,16.63333,"(52.866670, 16.633330)"
330,Gualeguaychú,11432.0,Valid,H6,22000.0,Observed,1932.0,-33.0,-58.61667,"(-33.000000, -58.616670)"
331,Guangmingshan,11435.0,Valid,H5,2910.0,Observed,1996.0,39.80417,122.76389,"(39.804170, 122.763890)"
332,Guangrao,11437.0,Valid,L6,1900.0,Observed,1980.0,37.1,118.4,"(37.100000, 118.400000)"
333,Guareña,11439.0,Valid,H6,39000.0,Observed,1892.0,38.73333,-6.01667,"(38.733330, -6.016670)"
334,Guêa,11440.0,Valid,Stone-uncl,1915.0,Observed,1891.0,43.76667,20.23333,"(43.766670, 20.233330)"
335,Guibga,11442.0,Valid,L5,288.0,Observed,1972.0,13.5,-0.68333,"(13.500000, -0.683330)"
336,Guidder,11443.0,Valid,LL5,968.0,Observed,1949.0,9.91667,13.98333,"(9.916670, 13.983330)"
337,Gujargaon,11448.0,Valid,H5,2449.0,Observed,1982.0,22.98333,76.05,"(22.983330, 76.050000)"
338,Gujba,11449.0,Valid,CBa,100000.0,Observed,1984.0,11.49167,11.65833,"(11.491670, 11.658330)"
339,Gumoschnik,11450.0,Valid,H5,5700.0,Observed,1904.0,42.9,24.7,"(42.900000, 24.700000)"
340,Gurram Konda,11464.0,Valid,L6,28.0,Observed,1814.0,13.78333,78.56667,"(13.783330, 78.566670)"
341,Gursum,11465.0,Valid,H4/5,34650.0,Observed,1981.0,9.36667,42.41667,"(9.366670, 42.416670)"
342,Gütersloh,11466.0,Valid,H3/4,1000.0,Observed,1851.0,51.91667,8.38333,"(51.916670, 8.383330)"
343,Gyokukei,11467.0,Valid,OC,1320.0,Observed,1930.0,35.0,127.5,"(35.000000, 127.500000)"
344,Hachi-oji,11468.0,Valid,H?,0.2,Observed,1817.0,35.65,139.33333,"(35.650000, 139.333330)"
345,Hainaut,11472.0,Valid,H3-6,9000.0,Observed,1934.0,50.31667,3.73333,"(50.316670, 3.733330)"
346,Hallingeberg,11479.0,Valid,L3.4,1456.0,Observed,1944.0,57.81667,16.23333,"(57.816670, 16.233330)"
347,Hamlet,11485.0,Valid,LL4,3710.0,Observed,1959.0,41.38333,-86.6,"(41.383330, -86.600000)"
348,Haraiya,11824.0,Valid,Eucrite-mmict,1000.0,Observed,1878.0,26.8,82.53333,"(26.800000, 82.533330)"
349,Haripura,11829.0,Valid,CM2,315.0,Observed,1921.0,28.38333,75.78333,"(28.383330, 75.783330)"
350,Harleton,11830.0,Valid,L6,8360.0,Observed,1961.0,32.675,-94.51167,"(32.675000, -94.511670)"
351,Harrison County,11842.0,Valid,L6,680.0,Observed,1859.0,38.25,-86.16667,"(38.250000, -86.166670)"
352,Hashima,11848.0,Valid,H4,1110.6,Observed,1910.0,35.2945,136.70033,"(35.294500, 136.700330)"
353,Hassi-Jekna,11852.0,Valid,"Iron, IAB-sHL",1250.0,Observed,1890.0,28.95,0.81667,"(28.950000, 0.816670)"
354,Hatford,11855.0,Valid,Stone-uncl,29000.0,Observed,1628.0,51.65,-1.51667,"(51.650000, -1.516670)"
355,Haverö,11859.0,Valid,Ureilite,1544.0,Observed,1971.0,60.24556,22.06194,"(60.245560, 22.061940)"
356,Hedeskoga,11869.0,Valid,H5,3500.0,Observed,1922.0,55.46667,13.78333,"(55.466670, 13.783330)"
357,Hedjaz,11870.0,Valid,L3.7-6,6100.0,Observed,1910.0,27.33333,35.66667,"(27.333330, 35.666670)"
358,Heredia,11875.0,Valid,H5,1000.0,Observed,1857.0,10.0,-84.1,"(10.000000, -84.100000)"
359,Hessle,11878.0,Valid,H5,20000.0,Observed,1869.0,59.85,17.66667,"(59.850000, 17.666670)"
360,Higashi-koen,11883.0,Valid,H5,750.0,Observed,1897.0,33.6,130.43333,"(33.600000, 130.433330)"
361,High Possil,11884.0,Valid,L6,4500.0,Observed,1804.0,55.9,-4.23333,"(55.900000, -4.233330)"
362,Hiroshima,11889.0,Valid,H5,414.0,Observed,2003.0,34.45,132.38333,"(34.450000, 132.383330)"
363,Hoima,44714.0,Valid,H6,167.7,Observed,2003.0,1.345,31.47278,"(1.345000, 31.472780)"
364,Hökmark,11893.0,Valid,L4,305.5,Observed,1954.0,64.43333,21.2,"(64.433330, 21.200000)"
365,Holbrook,11894.0,Valid,L/LL6,220000.0,Observed,1912.0,34.9,-110.18333,"(34.900000, -110.183330)"
366,Holetta,11895.0,Valid,Stone-uncl,1415.0,Observed,1923.0,9.06667,38.41667,"(9.066670, 38.416670)"
367,Homestead,11901.0,Valid,L5,230000.0,Observed,1875.0,41.8,-91.86667,"(41.800000, -91.866670)"
368,Honolulu,11904.0,Valid,L5,2420.0,Observed,1825.0,21.3,-157.86667,"(21.300000, -157.866670)"
369,Hotse,11913.0,Valid,L6,180.0,Observed,1956.0,35.66667,115.5,"(35.666670, 115.500000)"
370,Hoxie,11915.0,Valid,OC,266.1,Observed,1963.0,39.35,-100.45,"(39.350000, -100.450000)"
371,Hraschina,11916.0,Valid,"Iron, IID",49000.0,Observed,1751.0,46.1,16.33333,"(46.100000, 16.333330)"
372,Huaxi,54719.0,Valid,H5,1600.0,Observed,2010.0,26.46469,106.63241,"(26.464690, 106.632410)"
373,Hungen,11986.0,Valid,H6,112.0,Observed,1877.0,50.3,8.91667,"(50.300000, 8.916670)"
374,Hvittis,11989.0,Valid,EL6,14000.0,Observed,1901.0,61.18333,22.68333,"(61.183330, 22.683330)"
375,Ibbenbüren,11992.0,Valid,Diogenite,2000.0,Observed,1870.0,52.28333,7.7,"(52.283330, 7.700000)"
376,Ibitira,11993.0,Valid,Eucrite-mmict,2500.0,Observed,1957.0,-20.0,-45.0,"(-20.000000, -45.000000)"
377,Ichkala,11995.0,Valid,H6,3973.0,Observed,1936.0,58.2,82.93333,"(58.200000, 82.933330)"
378,Idutywa,12000.0,Valid,H5,3457.0,Observed,1956.0,-32.1,28.33333,"(-32.100000, 28.333330)"
379,Iguaracu,12003.0,Valid,H5,1200.0,Observed,1977.0,-23.2,-51.83333,"(-23.200000, -51.833330)"
380,Ijopega,12004.0,Valid,H6,7330.0,Observed,1975.0,-6.03333,145.36667,"(-6.033330, 145.366670)"
381,Indarch,12027.0,Valid,EH4,27000.0,Observed,1891.0,39.75,46.66667,"(39.750000, 46.666670)"
382,Independence,12028.0,Valid,L6,880.0,Observed,1917.0,39.08333,-94.4,"(39.083330, -94.400000)"
383,Inner Mongolia,12037.0,Valid,L6,3000.0,Observed,1963.0,41.0,112.0,"(41.000000, 112.000000)"
384,Innisfree,12039.0,Valid,L5,4576.0,Observed,1977.0,53.415,-111.3375,"(53.415000, -111.337500)"
385,Ipiranga,12043.0,Valid,H6,7000.0,Observed,1972.0,-25.5,-54.5,"(-25.500000, -54.500000)"
386,Ishinga,12049.0,Valid,H,1300.0,Observed,1954.0,-8.93333,33.8,"(-8.933330, 33.800000)"
387,Isthilart,12053.0,Valid,H5,3050.0,Observed,1928.0,-31.18333,-57.95,"(-31.183330, -57.950000)"
388,Itapicuru-Mirim,12056.0,Valid,H5,2024.0,Observed,1879.0,-3.4,-44.33333,"(-3.400000, -44.333330)"
389,Itqiy,12058.0,Valid,EH7-an,4720.0,Observed,1990.0,26.59083,-12.95217,"(26.590830, -12.952170)"
390,Ivuna,12063.0,Valid,CI1,704.5,Observed,1938.0,-8.41667,32.43333,"(-8.416670, 32.433330)"
391,Jackalsfontein,12065.0,Valid,L6,48000.0,Observed,1903.0,-32.5,21.9,"(-32.500000, 21.900000)"
392,Jajh deh Kot Lalu,12067.0,Valid,EL6,973.0,Observed,1926.0,26.75,68.41667,"(26.750000, 68.416670)"
393,Jalandhar,12069.0,Valid,Iron,1967.0,Observed,1621.0,31.0,75.0,"(31.000000, 75.000000)"
394,Jamkheir,12072.0,Valid,H6,22.0,Observed,1866.0,18.75,75.33333,"(18.750000, 75.333330)"
395,Jartai,12074.0,Valid,L6,20500.0,Observed,1979.0,39.7,105.8,"(39.700000, 105.800000)"
396,Jelica,12078.0,Valid,LL6,34000.0,Observed,1889.0,43.83333,20.44167,"(43.833330, 20.441670)"
397,Jesenice,51589.0,Valid,L6,3667.0,Observed,2009.0,46.42137,14.05217,"(46.421370, 14.052170)"
398,Jhung,12085.0,Valid,L5,5900.0,Observed,1873.0,31.3,72.38333,"(31.300000, 72.383330)"
399,Jiange,12086.0,Valid,H5,222.0,Observed,1964.0,31.91667,104.91667,"(31.916670, 104.916670)"
400,Jianshi,12087.0,Valid,"Iron, IIIAB",600000.0,Observed,1890.0,30.80833,109.5,"(30.808330, 109.500000)"
401,Jilin,12171.0,Valid,H5,4000000.0,Observed,1976.0,44.05,126.16667,"(44.050000, 126.166670)"
402,Jodiya,47362.0,Valid,L5,100.0,Observed,2006.0,22.68,70.31333,"(22.680000, 70.313330)"
403,Jodzie,12173.0,Valid,Howardite,30.0,Observed,1877.0,55.7,24.4,"(55.700000, 24.400000)"
404,Johnstown,12198.0,Valid,Diogenite,40300.0,Observed,1924.0,40.35,-104.9,"(40.350000, -104.900000)"
405,Jolomba,12199.0,Valid,LL6,483.0,Observed,1974.0,-11.85,15.83333,"(-11.850000, 15.833330)"
406,Jonzac,12202.0,Valid,Eucrite-mmict,5000.0,Observed,1819.0,45.43333,-0.45,"(45.433330, -0.450000)"
407,Juancheng,12203.0,Valid,H5,100000.0,Observed,1997.0,35.5,115.41667,"(35.500000, 115.416670)"
408,Judesegeri,12207.0,Valid,H6,680.0,Observed,1876.0,12.85,76.8,"(12.850000, 76.800000)"
409,Jumapalo,12209.0,Valid,L6,32490.0,Observed,1984.0,-7.71667,111.2,"(-7.716670, 111.200000)"
410,Junan,12210.0,Valid,L6,950.0,Observed,1976.0,35.2,118.8,"(35.200000, 118.800000)"
411,Juromenha,12213.0,Valid,"Iron, IIIAB",25250.0,Observed,1968.0,38.74028,-7.27,"(38.740280, -7.270000)"
412,Juvinas,12214.0,Valid,Eucrite-mmict,91000.0,Observed,1821.0,44.71667,4.3,"(44.716670, 4.300000)"
413,Kaba,12218.0,Valid,CV3,3000.0,Observed,1857.0,47.35,21.3,"(47.350000, 21.300000)"
414,Kabo,12220.0,Valid,H4,13400.0,Observed,1971.0,11.85,8.21667,"(11.850000, 8.216670)"
415,Kadonah,12221.0,Valid,H6,89.0,Observed,1822.0,27.08333,78.33333,"(27.083330, 78.333330)"
416,Kaee,12222.0,Valid,H5,230.0,Observed,1838.0,27.25,79.96667,"(27.250000, 79.966670)"
417,Kagarlyk,12227.0,Valid,L6,1900.0,Observed,1908.0,49.86667,30.83333,"(49.866670, 30.833330)"
418,Kaidun,12228.0,Valid,CR2,2000.0,Observed,1980.0,15.0,48.3,"(15.000000, 48.300000)"
419,Kainsaz,12229.0,Valid,CO3.2,200000.0,Observed,1937.0,55.43333,53.25,"(55.433330, 53.250000)"
420,Kakangari,12230.0,Valid,K3,350.0,Observed,1890.0,12.38333,78.51667,"(12.383330, 78.516670)"
421,Kakowa,12231.0,Valid,L6,577.0,Observed,1858.0,45.13333,21.66667,"(45.133330, 21.666670)"
422,Kalaba,12232.0,Valid,H4,950.0,Observed,1951.0,-6.83333,29.5,"(-6.833330, 29.500000)"
423,Kalumbi,12236.0,Valid,L6,4500.0,Observed,1879.0,17.83333,73.98333,"(17.833330, 73.983330)"
424,Kamalpur,12238.0,Valid,L6,2770.0,Observed,1942.0,26.03333,81.46667,"(26.033330, 81.466670)"
425,Kamiomi,12240.0,Valid,H5,448.0,Observed,1913.0,36.04167,139.95667,"(36.041670, 139.956670)"
426,Kamsagar,12241.0,Valid,L6,1293.0,Observed,1902.0,14.18333,75.8,"(14.183330, 75.800000)"
427,Kandahar (Afghanistan),12243.0,Valid,L6,299.0,Observed,1959.0,31.6,65.78333,"(31.600000, 65.783330)"
428,Kangean,12245.0,Valid,H5,1630.0,Observed,1908.0,-7.0,115.5,"(-7.000000, 115.500000)"
429,Kangra Valley,12246.0,Valid,H5,400.0,Observed,1897.0,32.08333,76.3,"(32.083330, 76.300000)"
430,Kapoeta,12251.0,Valid,Howardite,11355.0,Observed,1942.0,4.7,33.63333,"(4.700000, 33.633330)"
431,Kaprada,47357.0,Valid,L5/6,1600.0,Observed,2004.0,20.33916,73.22329,"(20.339160, 73.223290)"
432,Kaptal-Aryk,12253.0,Valid,L6,3500.0,Observed,1937.0,42.45,73.36667,"(42.450000, 73.366670)"
433,Karakol,12256.0,Valid,LL6,3000.0,Observed,1840.0,47.21667,81.01667,"(47.216670, 81.016670)"
434,Karatu,12258.0,Valid,LL6,2220.0,Observed,1963.0,-3.5,35.58333,"(-3.500000, 35.583330)"
435,Karewar,12260.0,Valid,L6,180.0,Observed,1949.0,12.9,7.15,"(12.900000, 7.150000)"
436,Karkh,12262.0,Valid,L6,22000.0,Observed,1905.0,27.8,67.16667,"(27.800000, 67.166670)"
437,Karloowala,12263.0,Valid,L6,2950.0,Observed,1955.0,31.58333,71.6,"(31.583330, 71.600000)"
438,Karoonda,12264.0,Valid,CK4,41730.0,Observed,1930.0,-35.08333,139.91667,"(-35.083330, 139.916670)"
439,Kasamatsu,12266.0,Valid,H,710.0,Observed,1938.0,35.36667,136.76667,"(35.366670, 136.766670)"
440,Kasauli,30740.0,Valid,H4,16820.0,Observed,2003.0,29.58333,77.58333,"(29.583330, 77.583330)"
441,Katagum,35465.0,Valid,L6,1500.0,Observed,1999.0,11.33333,10.08333,"(11.333330, 10.083330)"
442,Kavarpura,47351.0,Valid,"Iron, IIE-an",6800.0,Observed,2006.0,25.14333,75.81333,"(25.143330, 75.813330)"
443,Kayakent,12268.0,Valid,"Iron, IIIAB",85000.0,Observed,1961.0,39.26333,31.78,"(39.263330, 31.780000)"
444,Kediri,12270.0,Valid,L4,3300.0,Observed,1940.0,-7.75,112.01667,"(-7.750000, 112.016670)"
445,Kemer,53654.0,Valid,L4,5760.0,Observed,2008.0,36.54194,29.41822,"(36.541940, 29.418220)"
446,Kendleton,12275.0,Valid,L4,6937.0,Observed,1939.0,29.45,-96.0,"(29.450000, -96.000000)"
447,Kendrapara,12276.0,Valid,H4-5,6669.2,Observed,2003.0,20.4625,86.70278,"(20.462500, 86.702780)"
448,Kerilis,12282.0,Valid,H5,5000.0,Observed,1874.0,48.4,-3.3,"(48.400000, -3.300000)"
449,Kernouve,12284.0,Valid,H6,80000.0,Observed,1869.0,48.11667,-3.08333,"(48.116670, -3.083330)"
450,Kesen,12286.0,Valid,H4,135000.0,Observed,1850.0,38.98333,141.61667,"(38.983330, 141.616670)"
451,Khairpur,12288.0,Valid,EL6,13600.0,Observed,1873.0,29.53333,72.3,"(29.533330, 72.300000)"
452,Khanpur,12289.0,Valid,LL5,3698.0,Observed,1932.0,25.55,83.11667,"(25.550000, 83.116670)"
453,Kharkov,12291.0,Valid,L6,1500.0,Observed,1787.0,50.625,35.075,"(50.625000, 35.075000)"
454,Kheragur,12294.0,Valid,L6,450.0,Observed,1860.0,26.95,77.88333,"(26.950000, 77.883330)"
455,Khetri,12296.0,Valid,H6,100.0,Observed,1867.0,28.01667,75.81667,"(28.016670, 75.816670)"
456,Khmelevka,12297.0,Valid,L5,6109.0,Observed,1929.0,56.75,75.33333,"(56.750000, 75.333330)"
457,Khohar,12298.0,Valid,L3.6,9700.0,Observed,1910.0,25.1,81.53333,"(25.100000, 81.533330)"
458,Khor Temiki,12299.0,Valid,Aubrite,3200.0,Observed,1932.0,16.0,36.0,"(16.000000, 36.000000)"
459,Kidairat,12300.0,Valid,H6,100000.0,Observed,1983.0,14.0,28.0,"(14.000000, 28.000000)"
460,Kiel,12301.0,Valid,L6,737.6,Observed,1962.0,54.4,10.15,"(54.400000, 10.150000)"
461,Kiffa,12303.0,Valid,H5,1500.0,Observed,1970.0,16.58333,-11.33333,"(16.583330, -11.333330)"
462,Kijima (1906),12305.0,Valid,Stone-uncl,331.0,Observed,1906.0,36.85,138.38333,"(36.850000, 138.383330)"
463,Kikino,12306.0,Valid,H6,195.0,Observed,1809.0,55.0,34.0,"(55.000000, 34.000000)"
464,Kilabo,12307.0,Valid,LL6,19000.0,Observed,2002.0,12.76667,9.8,"(12.766670, 9.800000)"
465,Kilbourn,12308.0,Valid,H5,772.0,Observed,1911.0,43.58333,-89.6,"(43.583330, -89.600000)"
466,Killeter,12309.0,Valid,H6,140.0,Observed,1844.0,54.66667,-7.66667,"(54.666670, -7.666670)"
467,Kingai,12316.0,Valid,H6,67.4,Observed,1967.0,11.63333,24.68333,"(11.633330, 24.683330)"
468,Kirbyville,12321.0,Valid,Eucrite-mmict,97.7,Observed,1906.0,30.75,-95.95,"(30.750000, -95.950000)"
469,Kisvarsány,12325.0,Valid,L6,1550.0,Observed,1914.0,48.16667,22.30833,"(48.166670, 22.308330)"
470,Kitchener,12326.0,Valid,L6,202.6,Observed,1998.0,43.38333,-80.38333,"(43.383330, -80.383330)"
471,Klein-Wenden,12332.0,Valid,H6,3250.0,Observed,1843.0,51.6,10.8,"(51.600000, 10.800000)"
472,Knyahinya,12335.0,Valid,L/LL5,500000.0,Observed,1866.0,48.9,22.4,"(48.900000, 22.400000)"
473,Kobe,12336.0,Valid,CK4,136.0,Observed,1999.0,34.73333,135.16667,"(34.733330, 135.166670)"
474,Kokubunji,12342.0,Valid,L6,11510.0,Observed,1986.0,34.3,133.95,"(34.300000, 133.950000)"
475,Komagome,12343.0,Valid,Iron,238.0,Observed,1926.0,35.73333,139.75,"(35.733330, 139.750000)"
476,Konovo,12344.0,Valid,LL5,90.0,Observed,1931.0,42.51667,26.16667,"(42.516670, 26.166670)"
477,Košice,53810.0,Valid,H5,4300.0,Observed,2010.0,48.76367,21.17633,"(48.763670, 21.176330)"
478,Krähenberg,12353.0,Valid,LL5,16500.0,Observed,1869.0,49.32694,7.46472,"(49.326940, 7.464720)"
479,Krasnoi-Ugol,12355.0,Valid,L6,2440.0,Observed,1829.0,54.03333,40.9,"(54.033330, 40.900000)"
480,Krasnyi Klyuch,12357.0,Valid,H5,4000.0,Observed,1946.0,54.33333,56.08333,"(54.333330, 56.083330)"
481,Krutikha,12363.0,Valid,OC,845.2,Observed,1906.0,56.8,77.0,"(56.800000, 77.000000)"
482,Krymka,12364.0,Valid,LL3.2,50000.0,Observed,1946.0,47.83333,30.76667,"(47.833330, 30.766670)"
483,Kukschin,12368.0,Valid,L6,2250.0,Observed,1938.0,51.15,31.7,"(51.150000, 31.700000)"
484,Kulak,12369.0,Valid,L5,453.6,Observed,1961.0,30.73111,66.80222,"(30.731110, 66.802220)"
485,Kuleschovka,12370.0,Valid,L6,6000.0,Observed,1811.0,50.75,33.5,"(50.750000, 33.500000)"
486,Kulp,12373.0,Valid,H6,3719.0,Observed,1906.0,41.11667,45.0,"(41.116670, 45.000000)"
487,Kunashak,12377.0,Valid,L6,200000.0,Observed,1949.0,55.78333,61.36667,"(55.783330, 61.366670)"
488,Kunya-Urgench,12379.0,Valid,H5,1100000.0,Observed,1998.0,42.25,59.2,"(42.250000, 59.200000)"
489,Kushiike,12381.0,Valid,OC,4460.0,Observed,1920.0,37.05,138.38333,"(37.050000, 138.383330)"
490,Kusiali,12382.0,Valid,L6,5.0,Observed,1860.0,29.68333,78.38333,"(29.683330, 78.383330)"
491,Kutais,12383.0,Valid,H5,23.0,Observed,1977.0,44.51667,39.3,"(44.516670, 39.300000)"
492,Kuttippuram,12384.0,Valid,L6,45000.0,Observed,1914.0,10.83333,76.03333,"(10.833330, 76.033330)"
493,Kuznetzovo,12385.0,Valid,L6,4047.0,Observed,1932.0,55.2,75.33333,"(55.200000, 75.333330)"
494,Kyushu,12390.0,Valid,L6,45000.0,Observed,1886.0,32.03333,130.63333,"(32.033330, 130.633330)"
495,La Bécasse,12392.0,Valid,L6,2800.0,Observed,1879.0,47.08333,1.75,"(47.083330, 1.750000)"
496,La Charca,12394.0,Valid,OC,399.0,Observed,1878.0,20.66667,-101.28333,"(20.666670, -101.283330)"
497,La Colina,12395.0,Valid,H5,2000.0,Observed,1924.0,-37.33333,-61.53333,"(-37.333330, -61.533330)"
498,La Criolla,12396.0,Valid,L6,45000.0,Observed,1985.0,-31.23333,-58.16667,"(-31.233330, -58.166670)"
499,Laborel,12408.0,Valid,H5,3833.0,Observed,1871.0,44.28333,5.58333,"(44.283330, 5.583330)"
500,Lahrauli,12433.0,Valid,Ureilite,900.0,Observed,1955.0,26.78333,82.71667,"(26.783330, 82.716670)"
501,L'Aigle,12434.0,Valid,L6,37000.0,Observed,1803.0,48.76667,0.63333,"(48.766670, 0.633330)"
502,Lakangaon,12435.0,Valid,Eucrite-mmict,212.5,Observed,1910.0,21.86667,76.03333,"(21.866670, 76.033330)"
503,Lalitpur,12451.0,Valid,L6,372.0,Observed,1887.0,24.45,78.56667,"(24.450000, 78.566670)"
504,Lancé,12455.0,Valid,CO3.5,51700.0,Observed,1872.0,47.7,1.06667,"(47.700000, 1.066670)"
505,Lancon,12456.0,Valid,H6,7000.0,Observed,1897.0,43.75,5.11667,"(43.750000, 5.116670)"
506,Långhalsen,12461.0,Valid,L6,2300.0,Observed,1947.0,58.85,16.73333,"(58.850000, 16.733330)"
507,Lanxi,12464.0,Valid,L6,1282.0,Observed,1986.0,46.24167,126.19611,"(46.241670, 126.196110)"
508,Lanzenkirchen,12465.0,Valid,L4,7000.0,Observed,1925.0,47.75,16.23333,"(47.750000, 16.233330)"
509,Laochenzhen,12466.0,Valid,H5,14250.0,Observed,1987.0,33.13333,115.16667,"(33.133330, 115.166670)"
510,Launton,12740.0,Valid,L6,1060.0,Observed,1830.0,51.9,-1.11667,"(51.900000, -1.116670)"
511,Lavrentievka,12743.0,Valid,L6,800.0,Observed,1938.0,52.45,51.56667,"(52.450000, 51.566670)"
512,Le Pressoir,12748.0,Valid,H5,3000.0,Observed,1845.0,47.16667,0.43333,"(47.166670, 0.433330)"
513,Le Teilleul,12749.0,Valid,Howardite,780.0,Observed,1845.0,48.53333,-0.86667,"(48.533330, -0.866670)"
514,Leedey,12755.0,Valid,L6,51500.0,Observed,1943.0,35.88333,-99.33333,"(35.883330, -99.333330)"
515,Leeuwfontein,12756.0,Valid,L6,460.0,Observed,1912.0,-25.66667,28.36667,"(-25.666670, 28.366670)"
516,Leighlinbridge,12759.0,Valid,L6,271.4,Observed,1999.0,52.66667,-6.96667,"(52.666670, -6.966670)"
517,Leighton,12760.0,Valid,H5,877.0,Observed,1907.0,34.58333,-87.5,"(34.583330, -87.500000)"
518,Leonovka,12765.0,Valid,L6,700.0,Observed,1900.0,52.26667,32.85,"(52.266670, 32.850000)"
519,Les Ormes,12769.0,Valid,L6,125.0,Observed,1857.0,48.35,3.25,"(48.350000, 3.250000)"
520,Lesves,12772.0,Valid,L6,2000.0,Observed,1896.0,50.36667,4.73333,"(50.366670, 4.733330)"
521,Lichtenberg,14646.0,Valid,H6,4000.0,Observed,1973.0,-26.15,26.18333,"(-26.150000, 26.183330)"
522,Lillaverke,14650.0,Valid,H5,6862.0,Observed,1930.0,56.65,15.86667,"(56.650000, 15.866670)"
523,Limerick,14652.0,Valid,H5,50000.0,Observed,1813.0,52.56667,-8.78333,"(52.566670, -8.783330)"
524,Linum,14655.0,Valid,L6,1862.0,Observed,1854.0,52.75,12.9,"(52.750000, 12.900000)"
525,Lishui,14659.0,Valid,L5,498.0,Observed,1978.0,31.63333,118.98333,"(31.633330, 118.983330)"
526,Lissa,14661.0,Valid,L6,12800.0,Observed,1808.0,50.2,14.85,"(50.200000, 14.850000)"
527,Little Piney,14664.0,Valid,L5,491.0,Observed,1839.0,37.91667,-92.08333,"(37.916670, -92.083330)"
528,Lixna,14670.0,Valid,H4,5213.0,Observed,1820.0,56.0,26.43333,"(56.000000, 26.433330)"
529,Lodran,14675.0,Valid,Lodranite,1000.0,Observed,1868.0,29.53333,71.8,"(29.533330, 71.800000)"
530,Lohawat,14678.0,Valid,Howardite,40000.0,Observed,1994.0,26.96556,72.62667,"(26.965560, 72.626670)"
531,Lorton,52843.0,Valid,L6,329.7,Observed,2010.0,38.70066,-77.21163,"(38.700660, -77.211630)"
532,Los Martinez,14708.0,Valid,L6,25.0,Observed,1894.0,38.0,-0.83333,"(38.000000, -0.833330)"
533,Lost City,14711.0,Valid,H5,17000.0,Observed,1970.0,36.00833,-95.15,"(36.008330, -95.150000)"
534,Louisville,14716.0,Valid,L6,1300.0,Observed,1977.0,38.25,-85.75,"(38.250000, -85.750000)"
535,Łowicz,14718.0,Valid,Mesosiderite-A3,59000.0,Observed,1935.0,52.0,19.91667,"(52.000000, 19.916670)"
536,Lua,14721.0,Valid,L5,9241.0,Observed,1926.0,24.95,75.15,"(24.950000, 75.150000)"
537,Lucé,14724.0,Valid,L6,3500.0,Observed,1768.0,47.85,0.48333,"(47.850000, 0.483330)"
538,Lumpkin,14753.0,Valid,L6,340.0,Observed,1869.0,32.03333,-84.76667,"(32.033330, -84.766670)"
539,Lunan,14754.0,Valid,H6,2520.0,Observed,1980.0,24.8,103.3,"(24.800000, 103.300000)"
540,Lundsgård,14755.0,Valid,L6,11000.0,Observed,1889.0,56.21667,13.03333,"(56.216670, 13.033330)"
541,Luotolax,14756.0,Valid,Howardite,885.0,Observed,1813.0,61.2,27.7,"(61.200000, 27.700000)"
542,Luponnas,14757.0,Valid,H3-5,14000.0,Observed,1753.0,46.21667,5.0,"(46.216670, 5.000000)"
543,Mabwe-Khoywa,14764.0,Valid,L5,540.0,Observed,1937.0,19.0,97.0,"(19.000000, 97.000000)"
544,Macau,15370.0,Valid,H5,1500.0,Observed,1836.0,-5.2,-36.66667,"(-5.200000, -36.666670)"
545,Machinga,15371.0,Valid,L6,93200.0,Observed,1981.0,-15.21222,35.24222,"(-15.212220, 35.242220)"
546,Macibini,15372.0,Valid,Eucrite-pmict,1995.0,Observed,1936.0,-28.83333,31.95,"(-28.833330, 31.950000)"
547,Madhipura,15379.0,Valid,L,1000.0,Observed,1950.0,25.91667,86.36667,"(25.916670, 86.366670)"
548,Madiun,15380.0,Valid,L6,400.0,Observed,1935.0,-7.75,111.53333,"(-7.750000, 111.533330)"
549,Madrid,15382.0,Valid,L6,400.0,Observed,1896.0,40.41667,-3.71667,"(40.416670, -3.716670)"
550,Mafra,15383.0,Valid,L3-4,600.0,Observed,1941.0,-26.16667,-49.93333,"(-26.166670, -49.933330)"
551,Magnesia,15386.0,Valid,"Iron, IAB-sHL",5000.0,Observed,1899.0,37.86667,27.51667,"(37.866670, 27.516670)"
552,Magombedze,15387.0,Valid,H3-5,666.6,Observed,1990.0,-19.48333,31.65,"(-19.483330, 31.650000)"
553,Mahadevpur,47361.0,Valid,H4/5,70500.0,Observed,2007.0,27.66667,95.78333,"(27.666670, 95.783330)"
554,Maigatari-Danduma,30751.0,Valid,H5/6,4629.0,Observed,2004.0,12.83333,9.38333,"(12.833330, 9.383330)"
555,Malaga,15393.0,Valid,OC,150.0,Observed,1933.0,32.21667,-104.0,"(32.216670, -104.000000)"
556,Malakal,15394.0,Valid,L5,2000.0,Observed,1970.0,9.5,31.75,"(9.500000, 31.750000)"
557,Malampaka,15395.0,Valid,H,470.0,Observed,1930.0,-3.13333,33.51667,"(-3.133330, 33.516670)"
558,Malvern,15400.0,Valid,Eucrite-pmict,807.0,Observed,1933.0,-29.45,26.76667,"(-29.450000, 26.766670)"
559,Mamra Springs,15401.0,Valid,L6,1000.0,Observed,1927.0,45.21667,62.08333,"(45.216670, 62.083330)"
560,Manbhoom,15402.0,Valid,LL6,1700.0,Observed,1863.0,23.05,86.7,"(23.050000, 86.700000)"
561,Manegaon,15403.0,Valid,Diogenite,50.0,Observed,1843.0,20.96667,76.1,"(20.966670, 76.100000)"
562,Mangwendi,15405.0,Valid,LL6,22300.0,Observed,1934.0,-17.65,31.6,"(-17.650000, 31.600000)"
563,Manych,15409.0,Valid,LL3.4,3555.0,Observed,1951.0,45.81667,44.63333,"(45.816670, 44.633330)"
564,Mardan,15414.0,Valid,H5,4500.0,Observed,1948.0,34.23333,72.08333,"(34.233330, 72.083330)"
565,Mariaville,15419.0,Valid,Iron,340.0,Observed,1898.0,42.71667,-99.38333,"(42.716670, -99.383330)"
566,Maribo,48973.0,Valid,CM2,25.81,Observed,2009.0,54.76183,11.46745,"(54.761830, 11.467450)"
567,Maridi,15421.0,Valid,H6,3200.0,Observed,1941.0,4.66667,29.25,"(4.666670, 29.250000)"
568,Marilia,15422.0,Valid,H4,2500.0,Observed,1971.0,-22.25,-49.93333,"(-22.250000, -49.933330)"
569,Marion (Iowa),15424.0,Valid,L6,28400.0,Observed,1847.0,41.9,-91.6,"(41.900000, -91.600000)"
570,Marjalahti,15426.0,Valid,"Pallasite, PMG",45000.0,Observed,1902.0,61.5,30.5,"(61.500000, 30.500000)"
571,Marmande,15429.0,Valid,L5,3000.0,Observed,1848.0,44.5,0.15,"(44.500000, 0.150000)"
572,Maromandia,15430.0,Valid,L6,6000.0,Observed,2002.0,-14.2,48.1,"(-14.200000, 48.100000)"
573,Maryville,15436.0,Valid,L6,1443.0,Observed,1983.0,35.8,-84.1,"(35.800000, -84.100000)"
574,Mascombes,15438.0,Valid,L6,1000.0,Observed,1836.0,45.36667,1.86667,"(45.366670, 1.866670)"
575,Mässing,15443.0,Valid,Howardite,1600.0,Observed,1803.0,48.13333,12.61667,"(48.133330, 12.616670)"
576,Mauerkirchen,15446.0,Valid,L6,19000.0,Observed,1768.0,48.18333,13.13333,"(48.183330, 13.133330)"
577,Mauritius,15447.0,Valid,L6,220.0,Observed,1801.0,-20.0,57.0,"(-20.000000, 57.000000)"
578,Mayo Belwa,15451.0,Valid,Aubrite,4850.0,Observed,1974.0,8.96667,12.08333,"(8.966670, 12.083330)"
579,Mazapil,15453.0,Valid,"Iron, IAB-sLL",4000.0,Observed,1885.0,24.68333,-101.68333,"(24.683330, -101.683330)"
580,Maziba,15454.0,Valid,L6,4975.0,Observed,1942.0,-1.21667,30.0,"(-1.216670, 30.000000)"
581,Mbale,15455.0,Valid,L5/6,150000.0,Observed,1992.0,1.06667,34.16667,"(1.066670, 34.166670)"
582,Medanitos,15467.0,Valid,Eucrite-cm,31.0,Observed,1953.0,-27.25,-67.5,"(-27.250000, -67.500000)"
583,Meerut,15469.0,Valid,H5,22.0,Observed,1861.0,29.01667,77.8,"(29.016670, 77.800000)"
584,Meester-Cornelis,15470.0,Valid,H5,24750.0,Observed,1915.0,-6.23333,106.88333,"(-6.233330, 106.883330)"
585,Menow,15485.0,Valid,H4,10500.0,Observed,1862.0,53.18333,13.15,"(53.183330, 13.150000)"
586,Menziswyl,15486.0,Valid,L5,28.9,Observed,1903.0,46.81867,7.21817,"(46.818670, 7.218170)"
587,Mern,15489.0,Valid,L6,4000.0,Observed,1878.0,55.05,12.06667,"(55.050000, 12.066670)"
588,Merua,15492.0,Valid,H5,71400.0,Observed,1920.0,25.48333,81.98333,"(25.483330, 81.983330)"
589,Messina,15495.0,Valid,L5,2405.0,Observed,1955.0,38.18333,15.56667,"(38.183330, 15.566670)"
590,Meuselbach,16626.0,Valid,L6,870.0,Observed,1897.0,50.58333,11.1,"(50.583330, 11.100000)"
591,Mezel,16627.0,Valid,L6,1300.0,Observed,1949.0,45.76667,3.25,"(45.766670, 3.250000)"
592,Mezö-Madaras,16628.0,Valid,L3.7,22700.0,Observed,1852.0,46.5,25.73333,"(46.500000, 25.733330)"
593,Mhow,16629.0,Valid,L6,350.0,Observed,1827.0,25.9,83.61667,"(25.900000, 83.616670)"
594,Mianchi,16631.0,Valid,H5,1100.0,Observed,1980.0,34.8,111.7,"(34.800000, 111.700000)"
595,Middlesbrough,16632.0,Valid,L6,1600.0,Observed,1881.0,54.56667,-1.16667,"(54.566670, -1.166670)"
596,Mifflin,52090.0,Valid,L5,3584.0,Observed,2010.0,42.9075,-90.36556,"(42.907500, -90.365560)"
597,Mighei,16634.0,Valid,CM2,8000.0,Observed,1889.0,48.06667,30.96667,"(48.066670, 30.966670)"
598,Mihonoseki,16635.0,Valid,L6,6380.0,Observed,1992.0,35.56833,133.22,"(35.568330, 133.220000)"
599,Mike,16636.0,Valid,L6,224.2,Observed,1944.0,46.23333,17.53333,"(46.233330, 17.533330)"
600,Milena,16640.0,Valid,L6,10000.0,Observed,1842.0,46.18333,16.1,"(46.183330, 16.100000)"
601,Millbillillie,16643.0,Valid,Eucrite-mmict,330000.0,Observed,1960.0,-26.45,120.36667,"(-26.450000, 120.366670)"
602,Miller (Arkansas),16645.0,Valid,H5,16700.0,Observed,1930.0,35.4,-92.05,"(35.400000, -92.050000)"
603,Minamino,16692.0,Valid,L,1040.0,Observed,1632.0,35.07833,136.93333,"(35.078330, 136.933330)"
604,Mineo,16696.0,Valid,Pallasite,42.0,Observed,1826.0,37.28333,14.7,"(37.283330, 14.700000)"
605,Min-Fan-Zhun,16697.0,Valid,LL6,5500.0,Observed,1952.0,32.33333,120.66667,"(32.333330, 120.666670)"
606,Minnichhof,16700.0,Valid,OC,550.0,Observed,1905.0,47.7,16.6,"(47.700000, 16.600000)"
607,Mirzapur,16701.0,Valid,L5,8510.0,Observed,1910.0,25.68333,83.25,"(25.683330, 83.250000)"
608,Misshof,16703.0,Valid,H5,5800.0,Observed,1890.0,56.66667,23.0,"(56.666670, 23.000000)"
609,Mjelleim,16707.0,Valid,H,100.7,Observed,1898.0,61.73333,5.93333,"(61.733330, 5.933330)"
610,Mocs,16709.0,Valid,L5-6,300000.0,Observed,1882.0,46.8,24.03333,"(46.800000, 24.033330)"
611,Modoc (1905),16711.0,Valid,L6,35000.0,Observed,1905.0,38.5,-101.1,"(38.500000, -101.100000)"
612,Mokoia,16713.0,Valid,CV3,4500.0,Observed,1908.0,-39.63333,174.4,"(-39.633330, 174.400000)"
613,Molina,16715.0,Valid,H5,144000.0,Observed,1858.0,38.11667,-1.16667,"(38.116670, -1.166670)"
614,Molteno,16717.0,Valid,Howardite,150.0,Observed,1953.0,-31.25,26.46667,"(-31.250000, 26.466670)"
615,Monahans (1998),16719.0,Valid,H5,2587.0,Observed,1998.0,31.60833,-102.85833,"(31.608330, -102.858330)"
616,Monroe,16720.0,Valid,H4,8600.0,Observed,1849.0,35.25,-80.5,"(35.250000, -80.500000)"
617,Monte das Fortes,16725.0,Valid,L5,4885.0,Observed,1950.0,38.01667,-8.25,"(38.016670, -8.250000)"
618,Monte Milone,16726.0,Valid,L5,3130.0,Observed,1846.0,43.26667,13.35,"(43.266670, 13.350000)"
619,Montferré,16727.0,Valid,H5,149000.0,Observed,1923.0,43.39056,1.9625,"(43.390560, 1.962500)"
620,Montlivault,16729.0,Valid,L6,500.0,Observed,1838.0,47.63333,1.58333,"(47.633330, 1.583330)"
621,Moore County,16736.0,Valid,Eucrite-cm,1880.0,Observed,1913.0,35.41667,-79.38333,"(35.416670, -79.383330)"
622,Mooresfort,16737.0,Valid,H5,3520.0,Observed,1810.0,52.45,-8.33333,"(52.450000, -8.333330)"
623,Moorleah,16738.0,Valid,L6,8887.5,Observed,1930.0,-40.975,145.6,"(-40.975000, 145.600000)"
624,Moradabad,16740.0,Valid,L6,70.0,Observed,1808.0,28.78333,78.83333,"(28.783330, 78.833330)"
625,Morávka,16742.0,Valid,H5,633.0,Observed,2000.0,49.6,18.53333,"(49.600000, 18.533330)"
626,Mornans,16747.0,Valid,H5,1300.0,Observed,1875.0,44.6,5.13333,"(44.600000, 5.133330)"
627,Moss,36592.0,Valid,CO3.6,3763.0,Observed,2006.0,59.43333,10.7,"(59.433330, 10.700000)"
628,Moti-ka-nagla,16759.0,Valid,H6,1500.0,Observed,1868.0,26.83333,77.33333,"(26.833330, 77.333330)"
629,Motta di Conti,16762.0,Valid,H4,9150.0,Observed,1868.0,45.2,8.5,"(45.200000, 8.500000)"
630,Mount Browne,16766.0,Valid,H6,11300.0,Observed,1902.0,-29.8,141.7,"(-29.800000, 141.700000)"
631,Mount Tazerzait,16804.0,Valid,L5,110000.0,Observed,1991.0,18.7,4.8,"(18.700000, 4.800000)"
632,Mount Vaisi,16805.0,Valid,Stone-uncl,17000.0,Observed,1637.0,44.08333,6.86667,"(44.083330, 6.866670)"
633,Mtola,16820.0,Valid,Stone-uncl,1100.0,Observed,1944.0,-11.5,33.5,"(-11.500000, 33.500000)"
634,Muddoor,16841.0,Valid,L5,4400.0,Observed,1865.0,12.63333,77.01667,"(12.633330, 77.016670)"
635,Mulletiwu,16851.0,Valid,L,25.5,Observed,1795.0,9.33333,80.83333,"(9.333330, 80.833330)"
636,Muraid,16874.0,Valid,L6,4703.0,Observed,1924.0,24.5,90.21667,"(24.500000, 90.216670)"
637,Murchison,16875.0,Valid,CM2,100000.0,Observed,1969.0,-36.61667,145.2,"(-36.616670, 145.200000)"
638,Murray,16882.0,Valid,CM2,12600.0,Observed,1950.0,36.6,-88.1,"(36.600000, -88.100000)"
639,Muzaffarpur,16885.0,Valid,"Iron, IAB-sHL",1245.0,Observed,1964.0,26.13333,85.53333,"(26.133330, 85.533330)"
640,Nadiabondi,16889.0,Valid,H5,8165.0,Observed,1956.0,12.0,1.0,"(12.000000, 1.000000)"
641,Nagai,16890.0,Valid,L6,1810.0,Observed,1922.0,38.12167,140.06167,"(38.121670, 140.061670)"
642,Nagaria,16892.0,Valid,Eucrite-cm,20.0,Observed,1875.0,26.98333,78.21667,"(26.983330, 78.216670)"
643,Nagy-Borové,16893.0,Valid,L5,6100.0,Observed,1895.0,49.16667,19.5,"(49.166670, 19.500000)"
644,Nakhla,16898.0,Valid,Martian (nakhlite),10000.0,Observed,1911.0,31.31667,30.35,"(31.316670, 30.350000)"
645,Nakhon Pathom,16899.0,Valid,L6,23200.0,Observed,1923.0,13.73333,100.08333,"(13.733330, 100.083330)"
646,Nammianthal,16902.0,Valid,H5,4500.0,Observed,1886.0,12.28333,79.2,"(12.283330, 79.200000)"
647,Nan Yang Pao,16903.0,Valid,L6,52900.0,Observed,1917.0,35.66667,103.5,"(35.666670, 103.500000)"
648,Nanjemoy,16904.0,Valid,H6,7500.0,Observed,1825.0,38.41667,-77.16667,"(38.416670, -77.166670)"
649,Nantong,16907.0,Valid,H6,529.0,Observed,1984.0,32.11667,121.8,"(32.116670, 121.800000)"
650,Naoki,16908.0,Valid,H6,17000.0,Observed,1928.0,19.25,77.0,"(19.250000, 77.000000)"
651,Naragh,16909.0,Valid,H6,2700.0,Observed,1974.0,33.75,51.5,"(33.750000, 51.500000)"
652,Narellan,16912.0,Valid,L6,367.5,Observed,1928.0,-34.05,150.68889,"(-34.050000, 150.688890)"
653,Nassirah,16922.0,Valid,H4,347.0,Observed,1936.0,-21.73333,165.9,"(-21.733330, 165.900000)"
654,Nawapali,16927.0,Valid,CM2,105.0,Observed,1890.0,21.25,83.66667,"(21.250000, 83.666670)"
655,Neagari,16934.0,Valid,L6,420.0,Observed,1995.0,36.44917,136.46528,"(36.449170, 136.465280)"
656,Nedagolla,16935.0,Valid,"Iron, ungrouped",4500.0,Observed,1870.0,18.68333,83.48333,"(18.683330, 83.483330)"
657,Nejo,16941.0,Valid,L6,2450.0,Observed,1970.0,9.5,35.33333,"(9.500000, 35.333330)"
658,Nerft,16945.0,Valid,L6,10250.0,Observed,1864.0,56.5,21.5,"(56.500000, 21.500000)"
659,Neuschwanstein,16950.0,Valid,EL6,6189.0,Observed,2002.0,47.525,10.80833,"(47.525000, 10.808330)"
660,New Concord,16953.0,Valid,L6,230000.0,Observed,1860.0,40.0,-81.76667,"(40.000000, -81.766670)"
661,New Halfa,16954.0,Valid,L4,12000.0,Observed,1994.0,15.36667,35.68333,"(15.366670, 35.683330)"
662,New Orleans,16960.0,Valid,H5,19256.0,Observed,2003.0,29.94718,-90.10976,"(29.947180, -90.109760)"
663,Ngawi,16966.0,Valid,LL3.6,1393.0,Observed,1883.0,-7.45,111.41667,"(-7.450000, 111.416670)"
664,N'Goureyma,16968.0,Valid,"Iron, ungrouped",37500.0,Observed,1900.0,13.85,-4.38333,"(13.850000, -4.383330)"
665,Nikolaevka,16976.0,Valid,H4,3996.0,Observed,1935.0,52.45,78.63333,"(52.450000, 78.633330)"
666,Nikolskoe,16977.0,Valid,L4,6000.0,Observed,1954.0,56.11667,37.33333,"(56.116670, 37.333330)"
667,Ningbo,16980.0,Valid,"Iron, IVA",14250.0,Observed,1975.0,29.86667,121.48333,"(29.866670, 121.483330)"
668,Ningqiang,16981.0,Valid,C3-ung,4610.0,Observed,1983.0,32.925,105.90667,"(32.925000, 105.906670)"
669,Nio,16982.0,Valid,H3-4,467.0,Observed,1897.0,34.2,131.56667,"(34.200000, 131.566670)"
670,N'Kandhla,16983.0,Valid,"Iron, IID",17200.0,Observed,1912.0,-28.56667,30.7,"(-28.566670, 30.700000)"
671,Nobleborough,16984.0,Valid,Eucrite-pmict,2300.0,Observed,1823.0,44.08333,-69.48333,"(44.083330, -69.483330)"
672,Noblesville,16985.0,Valid,H4-6,483.7,Observed,1991.0,40.08528,-86.055,"(40.085280, -86.055000)"
673,Nogata,16988.0,Valid,L6,472.0,Observed,860.0,33.725,130.75,"(33.725000, 130.750000)"
674,Nogoya,16989.0,Valid,CM2,4000.0,Observed,1879.0,-32.36667,-59.83333,"(-32.366670, -59.833330)"
675,Norfork,16994.0,Valid,"Iron, IIIAB",1050.0,Observed,1918.0,36.21667,-92.26667,"(36.216670, -92.266670)"
676,Norton County,17922.0,Valid,Aubrite,1100000.0,Observed,1948.0,39.68333,-99.86667,"(39.683330, -99.866670)"
677,Noventa Vicentina,17930.0,Valid,H4,177.0,Observed,1971.0,45.29167,11.52722,"(45.291670, 11.527220)"
678,Novo-Urei,17933.0,Valid,Ureilite,1900.0,Observed,1886.0,54.81667,46.0,"(54.816670, 46.000000)"
679,Novy-Projekt,17935.0,Valid,OC,1001.0,Observed,1908.0,56.0,22.0,"(56.000000, 22.000000)"
680,Noyan-Bogdo,17936.0,Valid,L6,250.0,Observed,1933.0,42.91667,102.46667,"(42.916670, 102.466670)"
681,Nuevo Mercurio,17938.0,Valid,H5,50000.0,Observed,1978.0,24.3,-102.13333,"(24.300000, -102.133330)"
682,Nulles,17959.0,Valid,H6,5000.0,Observed,1851.0,41.63333,0.75,"(41.633330, 0.750000)"
683,Numakai,17960.0,Valid,H4,363.0,Observed,1925.0,43.33333,141.86667,"(43.333330, 141.866670)"
684,Nyaung,17969.0,Valid,"Iron, IIIAB",737.6,Observed,1939.0,21.20833,94.91667,"(21.208330, 94.916670)"
685,Nyirábrany,17970.0,Valid,LL5,1100.0,Observed,1914.0,47.55,22.025,"(47.550000, 22.025000)"
686,Ochansk,17979.0,Valid,H4,500000.0,Observed,1887.0,57.78333,55.26667,"(57.783330, 55.266670)"
687,Oesede,17988.0,Valid,H5,1400.0,Observed,1927.0,52.28333,8.05,"(52.283330, 8.050000)"
688,Oesel,17989.0,Valid,L6,6000.0,Observed,1855.0,58.5,23.0,"(58.500000, 23.000000)"
689,Ofehértó,17990.0,Valid,L6,3750.0,Observed,1900.0,47.88333,22.03333,"(47.883330, 22.033330)"
690,Ogi,17994.0,Valid,H6,14360.0,Observed,1741.0,33.28333,130.2,"(33.283330, 130.200000)"
691,Ohaba,17995.0,Valid,H5,16250.0,Observed,1857.0,46.06667,23.58333,"(46.066670, 23.583330)"
692,Ohuma,17996.0,Valid,L5,7700.0,Observed,1963.0,6.75,8.5,"(6.750000, 8.500000)"
693,Ojuelos Altos,17997.0,Valid,L6,5850.0,Observed,1926.0,38.18333,-5.4,"(38.183330, -5.400000)"
694,Okabe,17998.0,Valid,H5,194.0,Observed,1958.0,36.18333,139.21667,"(36.183330, 139.216670)"
695,Okano,18000.0,Valid,"Iron, IIAB",4742.0,Observed,1904.0,35.08333,135.2,"(35.083330, 135.200000)"
696,Okniny,18002.0,Valid,LL6,12000.0,Observed,1834.0,50.83333,25.5,"(50.833330, 25.500000)"
697,Oldenburg (1930),18009.0,Valid,L6,16570.0,Observed,1930.0,52.95,8.16667,"(52.950000, 8.166670)"
698,Olivenza,18013.0,Valid,LL5,150000.0,Observed,1924.0,38.71667,-7.06667,"(38.716670, -7.066670)"
699,Olmedilla de Alarcón,18015.0,Valid,H5,40000.0,Observed,1929.0,39.56667,-2.1,"(39.566670, -2.100000)"
700,Omolon,18019.0,Valid,"Pallasite, PMG",250000.0,Observed,1981.0,64.02,161.80833,"(64.020000, 161.808330)"
701,Orgueil,18026.0,Valid,CI1,14000.0,Observed,1864.0,43.88333,1.38333,"(43.883330, 1.383330)"
702,Orlando,34489.0,Valid,Eucrite,180.0,Observed,2004.0,28.5475,-81.36222,"(28.547500, -81.362220)"
703,Ornans,18030.0,Valid,CO3.4,6000.0,Observed,1868.0,47.11667,6.15,"(47.116670, 6.150000)"
704,Ortenau,18033.0,Valid,Stone-uncl,4500.0,Observed,1671.0,48.5,8.0,"(48.500000, 8.000000)"
705,Orvinio,18034.0,Valid,H6,3400.0,Observed,1872.0,42.13333,12.93333,"(42.133330, 12.933330)"
706,Oterøy,18042.0,Valid,L6,246.0,Observed,1928.0,58.88333,9.4,"(58.883330, 9.400000)"
707,Otomi,18045.0,Valid,H,6510.0,Observed,1867.0,38.4,140.35,"(38.400000, 140.350000)"
708,Ottawa,18046.0,Valid,LL6,840.0,Observed,1896.0,38.6,-95.21667,"(38.600000, -95.216670)"
709,Ouadangou,56729.0,Valid,L5,4440.0,Observed,2003.0,12.9,0.08,"(12.900000, 0.080000)"
710,Oued el Hadjar,18050.0,Valid,LL6,1215.5,Observed,1986.0,30.18,-6.57717,"(30.180000, -6.577170)"
711,Oum Dreyga,31282.0,Valid,H3-5,17000.0,Observed,2003.0,24.3,-13.1,"(24.300000, -13.100000)"
712,Ourique,18052.0,Valid,H4,20000.0,Observed,1998.0,37.60833,-8.28,"(37.608330, -8.280000)"
713,Ovambo,18055.0,Valid,L6,121.5,Observed,1900.0,-18.0,16.0,"(-18.000000, 16.000000)"
714,Oviedo,18058.0,Valid,H5,205.0,Observed,1856.0,43.4,-5.86667,"(43.400000, -5.866670)"
715,Pacula,18068.0,Valid,L6,3400.0,Observed,1881.0,21.05,-99.3,"(21.050000, -99.300000)"
716,Padvarninkai,18069.0,Valid,Eucrite-mmict,3858.0,Observed,1929.0,55.66667,25.0,"(55.666670, 25.000000)"
717,Paitan,18072.0,Valid,H6,515.0,Observed,1910.0,17.74333,120.45583,"(17.743330, 120.455830)"
718,Palca de Aparzo,18074.0,Valid,L5,1430.0,Observed,1988.0,-23.11667,-65.1,"(-23.116670, -65.100000)"
719,Palinshih,18077.0,Valid,Iron,18000.0,Observed,1914.0,43.48333,118.61667,"(43.483330, 118.616670)"
720,Palmyra,18079.0,Valid,L3,135.0,Observed,1926.0,39.8,-91.5,"(39.800000, -91.500000)"
721,Palolo Valley,18082.0,Valid,H5,682.0,Observed,1949.0,21.3,-157.78333,"(21.300000, -157.783330)"
722,Pampanga,18093.0,Valid,L5,10500.0,Observed,1859.0,15.08333,120.7,"(15.083330, 120.700000)"
723,Pantar,18098.0,Valid,H5,2130.0,Observed,1938.0,8.06667,124.28333,"(8.066670, 124.283330)"
724,Paragould,18101.0,Valid,LL5,408000.0,Observed,1930.0,36.06667,-90.5,"(36.066670, -90.500000)"
725,Parambu,18102.0,Valid,LL5,2000.0,Observed,1967.0,-6.23333,-40.7,"(-6.233330, -40.700000)"
726,Paranaiba,18103.0,Valid,L6,100000.0,Observed,1956.0,-19.13333,-51.66667,"(-19.133330, -51.666670)"
727,Park Forest,18106.0,Valid,L5,18000.0,Observed,2003.0,41.48472,-87.67917,"(41.484720, -87.679170)"
728,Parnallee,18108.0,Valid,LL3.6,77600.0,Observed,1857.0,9.23333,78.35,"(9.233330, 78.350000)"
729,Parsa,18109.0,Valid,EH3,800.0,Observed,1942.0,26.2,85.4,"(26.200000, 85.400000)"
730,Pasamonte,18110.0,Valid,Eucrite-pmict,5100.0,Observed,1933.0,36.21667,-103.4,"(36.216670, -103.400000)"
731,Patora,18112.0,Valid,H6,4375.0,Observed,1969.0,20.93694,82.05,"(20.936940, 82.050000)"
732,Patrimonio,18116.0,Valid,L6,2121.0,Observed,1950.0,-19.53333,-48.56667,"(-19.533330, -48.566670)"
733,Patti,18118.0,Valid,Iron,12.0,Observed,1922.0,38.13333,14.96667,"(38.133330, 14.966670)"
734,Patwar,18171.0,Valid,Mesosiderite-A1,37350.0,Observed,1935.0,23.15,91.18333,"(23.150000, 91.183330)"
735,Pavel,18173.0,Valid,H5,2968.0,Observed,1966.0,43.46667,25.51667,"(43.466670, 25.516670)"
736,Pavlodar (stone),18175.0,Valid,H5,142.5,Observed,1938.0,52.3,77.03333,"(52.300000, 77.033330)"
737,Pavlograd,18176.0,Valid,L6,40000.0,Observed,1826.0,48.53333,35.98333,"(48.533330, 35.983330)"
738,Pavlovka,18177.0,Valid,Howardite,2000.0,Observed,1882.0,52.03333,43.0,"(52.033330, 43.000000)"
739,Peace River,18180.0,Valid,L6,45760.0,Observed,1963.0,56.13333,-117.93333,"(56.133330, -117.933330)"
740,Peckelsheim,18181.0,Valid,Diogenite-pm,117.8,Observed,1953.0,51.66667,9.25,"(51.666670, 9.250000)"
741,Peekskill,18782.0,Valid,H6,12570.0,Observed,1992.0,41.28333,-73.91667,"(41.283330, -73.916670)"
742,Peña Blanca Spring,18786.0,Valid,Aubrite,70000.0,Observed,1946.0,30.125,-103.11667,"(30.125000, -103.116670)"
743,Peramiho,18792.0,Valid,Eucrite-mmict,165.0,Observed,1899.0,-10.66667,35.5,"(-10.666670, 35.500000)"
744,Perpeti,18793.0,Valid,L6,23474.0,Observed,1935.0,23.325,91.0,"(23.325000, 91.000000)"
745,Perth,18797.0,Valid,LL5,2.0,Observed,1830.0,56.4,-3.43333,"(56.400000, -3.433330)"
746,Pervomaisky,18798.0,Valid,L6,66000.0,Observed,1933.0,56.63333,39.43333,"(56.633330, 39.433330)"
747,Pesyanoe,18799.0,Valid,Aubrite,3393.0,Observed,1933.0,55.5,66.08333,"(55.500000, 66.083330)"
748,Pétèlkolé,18800.0,Valid,H5,189.0,Observed,1995.0,14.052,0.42,"(14.052000, 0.420000)"
749,Petersburg,18801.0,Valid,Eucrite-pmict,1800.0,Observed,1855.0,35.3,-86.63333,"(35.300000, -86.633330)"
750,Phillips County (stone),18808.0,Valid,L6,57900.0,Observed,1901.0,40.0,-99.25,"(40.000000, -99.250000)"
751,Phu Hong,18809.0,Valid,H4,500.0,Observed,1887.0,11.25,108.58333,"(11.250000, 108.583330)"
752,Phum Sambo,18811.0,Valid,H4,7800.0,Observed,1933.0,12.0,105.48333,"(12.000000, 105.483330)"
753,Phuoc-Binh,18812.0,Valid,L5,11000.0,Observed,1941.0,15.71667,108.1,"(15.716670, 108.100000)"
754,Piancaldoli,18813.0,Valid,LL3.4,13.1,Observed,1968.0,44.24417,11.50222,"(44.244170, 11.502220)"
755,Pillistfer,18822.0,Valid,EL6,23250.0,Observed,1863.0,58.66667,25.73333,"(58.666670, 25.733330)"
756,Piplia Kalan,18831.0,Valid,Eucrite-mmict,42000.0,Observed,1996.0,26.03472,73.94167,"(26.034720, 73.941670)"
757,Piquetberg,18832.0,Valid,H,37.0,Observed,1881.0,-32.86667,18.71667,"(-32.866670, 18.716670)"
758,Pirgunje,18834.0,Valid,L6,842.0,Observed,1882.0,25.8,88.45,"(25.800000, 88.450000)"
759,Pirthalla,18835.0,Valid,H6,1161.0,Observed,1884.0,29.58333,76.0,"(29.583330, 76.000000)"
760,Pitts,18837.0,Valid,"Iron, IAB-ung",3760.0,Observed,1921.0,31.95,-83.51667,"(31.950000, -83.516670)"
761,Plantersville,18846.0,Valid,H6,2085.0,Observed,1930.0,30.7,-96.11667,"(30.700000, -96.116670)"
762,Pleşcoi,51706.0,Valid,L5-6,6913.0,Observed,2008.0,45.275,26.70972,"(45.275000, 26.709720)"
763,Ploschkovitz,18849.0,Valid,L5,39.0,Observed,1723.0,50.53333,14.11667,"(50.533330, 14.116670)"
764,Pnompehn,18851.0,Valid,L6,96.0,Observed,1868.0,11.58333,104.91667,"(11.583330, 104.916670)"
765,Pohlitz,18853.0,Valid,L5,3000.0,Observed,1819.0,50.93333,12.13333,"(50.933330, 12.133330)"
766,Pokhra,18858.0,Valid,H5,350.0,Observed,1866.0,26.71667,82.66667,"(26.716670, 82.666670)"
767,Pollen,18860.0,Valid,CM2,253.6,Observed,1942.0,66.34833,14.015,"(66.348330, 14.015000)"
768,Pontlyfni,18865.0,Valid,Winonaite,157.0,Observed,1931.0,53.03639,-4.31944,"(53.036390, -4.319440)"
769,Portales Valley,18874.0,Valid,H6,71400.0,Observed,1998.0,34.175,-103.295,"(34.175000, -103.295000)"
770,Portugal,18876.0,Valid,Stone-uncl,4500.0,Observed,1796.0,38.5,-8.0,"(38.500000, -8.000000)"
771,Po-wang Chen,18879.0,Valid,LL,665.0,Observed,1933.0,31.41667,118.5,"(31.416670, 118.500000)"
772,Prambachkirchen,18883.0,Valid,L6,2125.0,Observed,1932.0,48.3025,13.94083,"(48.302500, 13.940830)"
773,Pribram,18887.0,Valid,H5,5555.0,Observed,1959.0,49.66667,14.03333,"(49.666670, 14.033330)"
774,Pricetown,18888.0,Valid,L6,900.0,Observed,1893.0,39.11667,-83.85,"(39.116670, -83.850000)"
775,Puerto Lápice,45984.0,Valid,Eucrite-br,500.0,Observed,2007.0,39.35,-3.51667,"(39.350000, -3.516670)"
776,Pulsora,18899.0,Valid,H5,560.0,Observed,1863.0,23.36667,75.18333,"(23.366670, 75.183330)"
777,Pultusk,18901.0,Valid,H5,250000.0,Observed,1868.0,52.76667,21.26667,"(52.766670, 21.266670)"
778,Punganaru,18902.0,Valid,Stone-uncl,100.0,Observed,1811.0,13.33333,78.95,"(13.333330, 78.950000)"
779,Putinga,18905.0,Valid,L6,300000.0,Observed,1937.0,-29.03333,-53.05,"(-29.033330, -53.050000)"
780,Qidong,18907.0,Valid,L/LL5,1275.0,Observed,1982.0,32.08333,121.5,"(32.083330, 121.500000)"
781,Qingzhen,18908.0,Valid,EH3,2600.0,Observed,1976.0,26.53333,106.46667,"(26.533330, 106.466670)"
782,Queen's Mercy,22357.0,Valid,H6,7000.0,Observed,1925.0,-30.11667,28.7,"(-30.116670, 28.700000)"
783,Quenggouk,22358.0,Valid,H4,6045.0,Observed,1857.0,17.76667,95.18333,"(17.766670, 95.183330)"
784,Quesa,22360.0,Valid,"Iron, IAB-ung",10750.0,Observed,1898.0,39.0,-0.66667,"(39.000000, -0.666670)"
785,Quija,22361.0,Valid,H,17450.0,Observed,1990.0,44.61667,126.13333,"(44.616670, 126.133330)"
786,Quincay,22363.0,Valid,L6,65.0,Observed,1851.0,46.6,0.25,"(46.600000, 0.250000)"
787,Raco,22368.0,Valid,H5,5000.0,Observed,1957.0,-26.66667,-65.45,"(-26.666670, -65.450000)"
788,Raghunathpura,22371.0,Valid,"Iron, IIAB",10200.0,Observed,1986.0,27.72528,76.465,"(27.725280, 76.465000)"
789,Rahimyar Khan,31302.0,Valid,L5,67225.0,Observed,1983.0,28.225,70.2,"(28.225000, 70.200000)"
790,Rakovka,22376.0,Valid,L6,9000.0,Observed,1878.0,52.98333,37.03333,"(52.983330, 37.033330)"
791,Ramnagar,22384.0,Valid,L6,3766.0,Observed,1940.0,26.45,82.9,"(26.450000, 82.900000)"
792,Rampurhat,22385.0,Valid,LL,100.0,Observed,1916.0,24.16667,87.76667,"(24.166670, 87.766670)"
793,Ramsdorf,22386.0,Valid,L6,4682.0,Observed,1958.0,51.88333,6.93333,"(51.883330, 6.933330)"
794,Ranchapur,22387.0,Valid,H4,290.4,Observed,1917.0,23.98333,87.08333,"(23.983330, 87.083330)"
795,Rancho de la Presa,22390.0,Valid,H5,300.0,Observed,1899.0,19.86667,-100.81667,"(19.866670, -100.816670)"
796,Rangala,22392.0,Valid,L6,3224.5,Observed,1937.0,25.38333,72.01667,"(25.383330, 72.016670)"
797,Raoyang,22394.0,Valid,L6,4910.0,Observed,1919.0,38.2,115.7,"(38.200000, 115.700000)"
798,Ras Tanura,22395.0,Valid,H6,6.1,Observed,1961.0,26.66667,50.15,"(26.666670, 50.150000)"
799,Rasgrad,22396.0,Valid,Stone-uncl,24700.0,Observed,1740.0,43.5,26.53333,"(43.500000, 26.533330)"
800,Ratyn,22398.0,Valid,Stone-uncl,910.0,Observed,1880.0,52.2,17.98333,"(52.200000, 17.983330)"
801,Red Canyon Lake,53502.0,Valid,H5,18.41,Observed,2007.0,38.13742,-119.75812,"(38.137420, -119.758120)"
802,Reliegos,22584.0,Valid,L5,17300.0,Observed,1947.0,42.475,-5.33333,"(42.475000, -5.333330)"
803,Rembang,22585.0,Valid,"Iron, IVA",10000.0,Observed,1919.0,-6.73333,111.36667,"(-6.733330, 111.366670)"
804,Renazzo,22586.0,Valid,CR2,1000.0,Observed,1824.0,44.76667,11.28333,"(44.766670, 11.283330)"
805,Renca,22587.0,Valid,L5,300.0,Observed,1925.0,-32.75,-65.28333,"(-32.750000, -65.283330)"
806,Renqiu,22589.0,Valid,L6,355.0,Observed,1916.0,38.66667,116.13333,"(38.666670, 116.133330)"
807,Repeev Khutor,22590.0,Valid,"Iron, IIF",7000.0,Observed,1933.0,48.6,45.66667,"(48.600000, 45.666670)"
808,Revelstoke,22592.0,Valid,CI1,1.0,Observed,1965.0,51.33333,-118.95,"(51.333330, -118.950000)"
809,Rewari,22593.0,Valid,L6,3332.0,Observed,1929.0,28.2,76.66667,"(28.200000, 76.666670)"
810,Rich Mountain,22597.0,Valid,L6,668.0,Observed,1903.0,35.03333,-83.03333,"(35.033330, -83.033330)"
811,Richardton,22599.0,Valid,H5,90000.0,Observed,1918.0,46.88333,-102.31667,"(46.883330, -102.316670)"
812,Richland Springs,22602.0,Valid,OC,1900.0,Observed,1980.0,31.25,-99.03333,"(31.250000, -99.033330)"
813,Richmond,22603.0,Valid,LL5,1800.0,Observed,1828.0,37.46667,-77.5,"(37.466670, -77.500000)"
814,Rio Negro,22611.0,Valid,L4,1310.0,Observed,1934.0,-26.1,-49.8,"(-26.100000, -49.800000)"
815,Rivolta de Bassi,22614.0,Valid,Stone-uncl,103.3,Observed,1490.0,45.48333,9.51667,"(45.483330, 9.516670)"
816,Rochester,22637.0,Valid,H6,340.0,Observed,1876.0,41.08333,-86.28333,"(41.083330, -86.283330)"
817,Rockhampton,22640.0,Valid,Stone-uncl,1641.0,Observed,1895.0,-23.38333,150.51667,"(-23.383330, 150.516670)"
818,Roda,22641.0,Valid,Diogenite,400.0,Observed,1871.0,42.3,0.55,"(42.300000, 0.550000)"
819,Rodach,22642.0,Valid,Stone-uncl,2900.0,Observed,1775.0,50.35,10.8,"(50.350000, 10.800000)"
820,Rose City,22766.0,Valid,H5,10600.0,Observed,1921.0,44.51667,-83.95,"(44.516670, -83.950000)"
821,Rowton,22773.0,Valid,"Iron, IIIAB",3500.0,Observed,1876.0,52.76667,-2.51667,"(52.766670, -2.516670)"
822,Ruhobobo,22780.0,Valid,L6,465.5,Observed,1976.0,-1.45,29.83333,"(-1.450000, 29.833330)"
823,Rumuruti,22782.0,Valid,R3.8-6,67.0,Observed,1934.0,0.26667,36.53333,"(0.266670, 36.533330)"
824,Rupota,22783.0,Valid,L4-6,6000.0,Observed,1949.0,-10.26667,38.76667,"(-10.266670, 38.766670)"
825,Ryechki,22791.0,Valid,L5,13000.0,Observed,1914.0,51.13333,34.5,"(51.133330, 34.500000)"
826,Sabetmahet,22792.0,Valid,H5,1250.0,Observed,1855.0,27.43333,82.08333,"(27.433330, 82.083330)"
827,Sabrum,22793.0,Valid,LL6,478.0,Observed,1999.0,23.08333,91.66667,"(23.083330, 91.666670)"
828,Saint-Sauveur,23101.0,Valid,EH5,14000.0,Observed,1914.0,43.73333,1.38333,"(43.733330, 1.383330)"
829,Saint-Séverin,23102.0,Valid,LL6,271000.0,Observed,1966.0,45.3,0.23333,"(45.300000, 0.233330)"
830,Sakauchi,23103.0,Valid,Iron,4180.0,Observed,1913.0,35.66667,136.3,"(35.666670, 136.300000)"
831,Salem,23107.0,Valid,L6,61.4,Observed,1981.0,44.97917,-122.96944,"(44.979170, -122.969440)"
832,Salles,23111.0,Valid,L5,9000.0,Observed,1798.0,46.05,4.63333,"(46.050000, 4.633330)"
833,Salzwedel,23114.0,Valid,LL5,43.0,Observed,1985.0,52.75,11.05,"(52.750000, 11.050000)"
834,Samelia,23115.0,Valid,"Iron, IIIAB",2462.0,Observed,1921.0,25.66667,74.86667,"(25.666670, 74.866670)"
835,San Juan Capistrano,23128.0,Valid,H6,56.0,Observed,1973.0,33.48472,-117.6625,"(33.484720, -117.662500)"
836,San Michele,31315.0,Valid,L6,237.0,Observed,2002.0,43.66667,13.0,"(43.666670, 13.000000)"
837,San Pedro de Quiles,23130.0,Valid,L6,282.0,Observed,1956.0,-31.01667,-71.4,"(-31.016670, -71.400000)"
838,San Pedro Jacuaro,34063.0,Valid,LL6,460.0,Observed,1968.0,19.76667,-100.65,"(19.766670, -100.650000)"
839,Santa Barbara,23161.0,Valid,L4,400.0,Observed,1873.0,-29.2,-51.86667,"(-29.200000, -51.866670)"
840,Santa Cruz,23164.0,Valid,CM2,60.0,Observed,1939.0,24.16667,-99.33333,"(24.166670, -99.333330)"
841,Santa Isabel,23165.0,Valid,L6,5500.0,Observed,1924.0,-33.9,-61.7,"(-33.900000, -61.700000)"
842,Santa Lucia (2008),50909.0,Valid,L6,4000.0,Observed,2008.0,-31.535556,-68.489444,"(-31.535556, -68.489444)"
843,São Jose do Rio Preto,23171.0,Valid,H4,927.0,Observed,1962.0,-20.81,-49.38056,"(-20.810000, -49.380560)"
844,Saratov,23176.0,Valid,L4,200000.0,Observed,1918.0,52.55,46.55,"(52.550000, 46.550000)"
845,Sasagase,23187.0,Valid,H,695.0,Observed,1688.0,34.71667,137.78333,"(34.716670, 137.783330)"
846,Sauguis,23188.0,Valid,L6,4000.0,Observed,1868.0,43.15,-0.85,"(43.150000, -0.850000)"
847,Savtschenskoje,23190.0,Valid,LL4,2500.0,Observed,1894.0,47.21667,29.86667,"(47.216670, 29.866670)"
848,Sayama,23192.0,Valid,CM2,430.0,Observed,1986.0,35.86667,139.4,"(35.866670, 139.400000)"
849,Sazovice,23455.0,Valid,L5,412.0,Observed,1934.0,49.23333,17.56667,"(49.233330, 17.566670)"
850,Schellin,23457.0,Valid,L,7000.0,Observed,1715.0,53.35,15.05,"(53.350000, 15.050000)"
851,Schenectady,23458.0,Valid,H5,283.3,Observed,1968.0,42.86083,-73.95028,"(42.860830, -73.950280)"
852,Schönenberg,23460.0,Valid,L6,8000.0,Observed,1846.0,48.11667,10.46667,"(48.116670, 10.466670)"
853,Searsmont,23472.0,Valid,H5,5400.0,Observed,1871.0,44.36667,-69.2,"(44.366670, -69.200000)"
854,Sediköy,23473.0,Valid,L6,240.0,Observed,1917.0,38.3,27.13333,"(38.300000, 27.133330)"
855,Segowlie,23476.0,Valid,LL6,6930.0,Observed,1853.0,26.75,84.78333,"(26.750000, 84.783330)"
856,Selakopi,23481.0,Valid,H5,1590.0,Observed,1939.0,-7.23333,107.33333,"(-7.233330, 107.333330)"
857,Seldebourak,23483.0,Valid,H5,150.0,Observed,1947.0,22.83333,4.98333,"(22.833330, 4.983330)"
858,Semarkona,23487.0,Valid,LL3.00,691.0,Observed,1940.0,22.25,79.0,"(22.250000, 79.000000)"
859,Sena,23495.0,Valid,H4,4000.0,Observed,1773.0,41.71667,-0.05,"(41.716670, -0.050000)"
860,Senboku,23496.0,Valid,H6,866.0,Observed,1993.0,39.43833,140.51167,"(39.438330, 140.511670)"
861,Seoni,23500.0,Valid,H6,20000.0,Observed,1966.0,21.68389,79.50083,"(21.683890, 79.500830)"
862,Seres,23501.0,Valid,H4,8500.0,Observed,1818.0,41.05,23.56667,"(41.050000, 23.566670)"
863,Serra de Magé,23502.0,Valid,Eucrite-cm,1800.0,Observed,1923.0,-8.38333,-36.76667,"(-8.383330, -36.766670)"
864,Sete Lagoas,23504.0,Valid,H4,350.0,Observed,1908.0,-19.46667,-44.21667,"(-19.466670, -44.216670)"
865,Sevilla,23508.0,Valid,LL4,180.0,Observed,1862.0,37.41667,-6.0,"(37.416670, -6.000000)"
866,Sevrukovo,23509.0,Valid,L5,101000.0,Observed,1874.0,50.61667,36.6,"(50.616670, 36.600000)"
867,Sfax,23512.0,Valid,L6,7000.0,Observed,1989.0,34.75,10.71667,"(34.750000, 10.716670)"
868,Shalka,23521.0,Valid,Diogenite,4000.0,Observed,1850.0,23.1,87.3,"(23.100000, 87.300000)"
869,Sharps,23525.0,Valid,H3.4,1265.0,Observed,1921.0,37.83333,-76.7,"(37.833330, -76.700000)"
870,Shelburne,23529.0,Valid,L5,18600.0,Observed,1904.0,44.05,-80.16667,"(44.050000, -80.166670)"
871,Shergotty,23530.0,Valid,Martian (shergottite),5000.0,Observed,1865.0,24.55,84.83333,"(24.550000, 84.833330)"
872,Sheyang,23531.0,Valid,L6,605.0,Observed,1976.0,33.65,120.06667,"(33.650000, 120.066670)"
873,Shikarpur,23534.0,Valid,L6,3679.7,Observed,1921.0,25.85,87.5775,"(25.850000, 87.577500)"
874,Shuangyang,23582.0,Valid,H5,3900.0,Observed,1971.0,43.5,125.66667,"(43.500000, 125.666670)"
875,Shupiyan,23583.0,Valid,H6,5000.0,Observed,1912.0,33.71667,74.83333,"(33.716670, 74.833330)"
876,Shytal,23584.0,Valid,L6,3200.0,Observed,1863.0,24.33333,90.16667,"(24.333330, 90.166670)"
877,Siena,23586.0,Valid,LL5,3700.0,Observed,1794.0,43.11667,11.6,"(43.116670, 11.600000)"
878,Sikhote-Alin,23593.0,Valid,"Iron, IIAB",23000000.0,Observed,1947.0,46.16,134.65333,"(46.160000, 134.653330)"
879,Silao,23594.0,Valid,H5,1710.0,Observed,1995.0,20.93333,-101.38333,"(20.933330, -101.383330)"
880,Silistra,55584.0,Valid,Achondrite-ung,0.15,Observed,1917.0,44.11667,27.26667,"(44.116670, 27.266670)"
881,Simmern,23603.0,Valid,H5,1222.0,Observed,1920.0,49.98333,7.53333,"(49.983330, 7.533330)"
882,Sinai,23606.0,Valid,L6,1455.0,Observed,1916.0,30.9,32.48333,"(30.900000, 32.483330)"
883,Sindhri,23611.0,Valid,H5,8400.0,Observed,1901.0,26.21667,69.55,"(26.216670, 69.550000)"
884,Sinnai,23613.0,Valid,H6,2000.0,Observed,1956.0,39.3,9.2,"(39.300000, 9.200000)"
885,Sioux County,23614.0,Valid,Eucrite-mmict,4100.0,Observed,1933.0,42.58333,-103.66667,"(42.583330, -103.666670)"
886,Sitathali,23616.0,Valid,H5,1600.0,Observed,1875.0,20.91667,82.58333,"(20.916670, 82.583330)"
887,Sivas,23617.0,Valid,H6,40000.0,Observed,1989.0,39.82467,36.13583,"(39.824670, 36.135830)"
888,Sixiangkou,23619.0,Valid,L5,630.0,Observed,1989.0,32.43333,119.86667,"(32.433330, 119.866670)"
889,Ski,23621.0,Valid,L6,850.0,Observed,1848.0,59.73333,10.86667,"(59.733330, 10.866670)"
890,Slavetic,23626.0,Valid,H5,1708.0,Observed,1868.0,45.68333,15.6,"(45.683330, 15.600000)"
891,Slobodka,23645.0,Valid,L4,2750.0,Observed,1818.0,55.0,35.0,"(55.000000, 35.000000)"
892,Soheria,23660.0,Valid,OC,72.9,Observed,1960.0,27.13333,84.06667,"(27.133330, 84.066670)"
893,Soko-Banja,23661.0,Valid,LL4,80000.0,Observed,1877.0,43.66667,21.86667,"(43.666670, 21.866670)"
894,Sologne,23663.0,Valid,H5,54.0,Observed,1860.0,47.36667,1.73333,"(47.366670, 1.733330)"
895,Sołtmany,53829.0,Valid,L6,1066.0,Observed,2011.0,54.00883,22.005,"(54.008830, 22.005000)"
896,Sone,23667.0,Valid,H5,17100.0,Observed,1866.0,35.16667,135.33333,"(35.166670, 135.333330)"
897,Songyuan,23668.0,Valid,L6,36900.0,Observed,1993.0,45.25,125.0,"(45.250000, 125.000000)"
898,Sopot,23670.0,Valid,OC,958.0,Observed,1927.0,44.41667,23.5,"(44.416670, 23.500000)"
899,Soroti,23671.0,Valid,"Iron, ungrouped",2050.0,Observed,1945.0,1.7,33.63333,"(1.700000, 33.633330)"
900,St. Caprais-de-Quinsac,23081.0,Valid,L6,360.0,Observed,1883.0,44.75,0.05,"(44.750000, 0.050000)"
901,St. Christophe-la-Chartreuse,23082.0,Valid,L6,5500.0,Observed,1841.0,46.95,-1.5,"(46.950000, -1.500000)"
902,St. Denis Westrem,23083.0,Valid,L6,700.0,Observed,1855.0,51.05,3.75,"(51.050000, 3.750000)"
903,St. Germain-du-Pinel,23087.0,Valid,H6,4000.0,Observed,1890.0,48.01667,-1.15,"(48.016670, -1.150000)"
904,St. Louis,23089.0,Valid,H4,1000.0,Observed,1950.0,38.7,-90.23333,"(38.700000, -90.233330)"
905,St. Mark's,23090.0,Valid,EH5,13780.0,Observed,1903.0,-32.01667,27.41667,"(-32.016670, 27.416670)"
906,St. Mary's County,23091.0,Valid,LL3.3,24.3,Observed,1919.0,38.16667,-76.38333,"(38.166670, -76.383330)"
907,St. Mesmin,23092.0,Valid,LL6,8300.0,Observed,1866.0,48.45,3.93333,"(48.450000, 3.933330)"
908,St. Michel,23093.0,Valid,L6,17000.0,Observed,1910.0,61.65,27.2,"(61.650000, 27.200000)"
909,St.-Chinian,23097.0,Valid,L6,134.3,Observed,1959.0,43.43333,2.95,"(43.433330, 2.950000)"
910,Ställdalen,23712.0,Valid,H5,34000.0,Observed,1876.0,59.93333,14.95,"(59.933330, 14.950000)"
911,Stannern,23713.0,Valid,Eucrite-mmict,52000.0,Observed,1808.0,49.28333,15.56667,"(49.283330, 15.566670)"
912,Stavropol,23717.0,Valid,L6,1500.0,Observed,1857.0,45.05,41.98333,"(45.050000, 41.983330)"
913,Ste. Marguerite,23099.0,Valid,H4,4960.0,Observed,1962.0,50.76667,3.0,"(50.766670, 3.000000)"
914,Sterlitamak,23724.0,Valid,"Iron, IIIAB",325000.0,Observed,1990.0,53.66667,55.98333,"(53.666670, 55.983330)"
915,Stratford,23728.0,Valid,L6,50.0,Observed,1974.0,41.2,-73.13333,"(41.200000, -73.133330)"
916,Strathmore,23729.0,Valid,L6,13400.0,Observed,1917.0,56.58333,-3.25,"(56.583330, -3.250000)"
917,Stretchleigh,23732.0,Valid,Stone-uncl,10400.0,Observed,1623.0,50.38333,-3.95,"(50.383330, -3.950000)"
918,St-Robert,23733.0,Valid,H5,25400.0,Observed,1994.0,45.96861,-72.97806,"(45.968610, -72.978060)"
919,Success,23736.0,Valid,L6,3500.0,Observed,1924.0,36.48333,-90.66667,"(36.483330, -90.666670)"
920,Suchy Dul,23737.0,Valid,L6,815.3,Observed,1969.0,50.53806,16.26333,"(50.538060, 16.263330)"
921,Suizhou,23738.0,Valid,L6,260000.0,Observed,1986.0,31.61667,113.46667,"(31.616670, 113.466670)"
922,Sulagiri,48951.0,Valid,LL6,110000.0,Observed,2008.0,12.66667,78.03333,"(12.666670, 78.033330)"
923,Sultanpur,23741.0,Valid,L/LL6,1710.5,Observed,1916.0,25.93333,84.28333,"(25.933330, 84.283330)"
924,Sungach,23745.0,Valid,H5,637.0,Observed,1935.0,44.86667,133.16667,"(44.866670, 133.166670)"
925,Supuhee,23760.0,Valid,H6,7235.0,Observed,1865.0,26.71667,84.21667,"(26.716670, 84.216670)"
926,Sutter's Mill,55529.0,Valid,C,992.5,Observed,2012.0,38.80389,-120.90806,"(38.803890, -120.908060)"
927,Sylacauga,23773.0,Valid,H4,5560.0,Observed,1954.0,33.18836,-86.2945,"(33.188360, -86.294500)"
928,Tabor,23776.0,Valid,H5,7540.0,Observed,1753.0,49.4,14.65,"(49.400000, 14.650000)"
929,Tadjera,23778.0,Valid,L5,9000.0,Observed,1867.0,36.18333,5.41667,"(36.183330, 5.416670)"
930,Tagish Lake,23782.0,Valid,C2-ung,10000.0,Observed,2000.0,59.70444,-134.20139,"(59.704440, -134.201390)"
931,Tahara,23784.0,Valid,H4/5,1000.0,Observed,1991.0,34.72,137.305,"(34.720000, 137.305000)"
932,Takenouchi,23789.0,Valid,H5,720.0,Observed,1880.0,35.38333,134.9,"(35.383330, 134.900000)"
933,Tambakwatu,23795.0,Valid,L6,10500.0,Observed,1975.0,-7.75,112.76667,"(-7.750000, 112.766670)"
934,Tamdakht,48691.0,Valid,H5,100000.0,Observed,2008.0,31.16333,-7.015,"(31.163330, -7.015000)"
935,Tané,23801.0,Valid,L5,905.0,Observed,1918.0,35.43333,136.23333,"(35.433330, 136.233330)"
936,Taonan,23873.0,Valid,L5,3850.0,Observed,1965.0,45.4,122.9,"(45.400000, 122.900000)"
937,Tatahouine,23884.0,Valid,Diogenite,12000.0,Observed,1931.0,32.95,10.41667,"(32.950000, 10.416670)"
938,Tathlith,23885.0,Valid,L6,2500.0,Observed,1967.0,19.38333,43.73333,"(19.383330, 43.733330)"
939,Tauk,23887.0,Valid,L6,6000.0,Observed,1929.0,35.13333,44.45,"(35.133330, 44.450000)"
940,Tauti,23888.0,Valid,L6,21000.0,Observed,1937.0,46.71667,23.5,"(46.716670, 23.500000)"
941,Tenham,23897.0,Valid,L6,160000.0,Observed,1879.0,-25.73333,142.95,"(-25.733330, 142.950000)"
942,Tennasilm,23898.0,Valid,L4,28500.0,Observed,1872.0,58.03333,26.95,"(58.033330, 26.950000)"
943,Thal,23908.0,Valid,H6,342.0,Observed,1950.0,33.4,70.6,"(33.400000, 70.600000)"
944,Thika,54493.0,Valid,L6,14200.0,Observed,2011.0,-1.00278,37.15028,"(-1.002780, 37.150280)"
945,Thuathe,23976.0,Valid,H4/5,45300.0,Observed,2002.0,-29.33333,27.58333,"(-29.333330, 27.583330)"
946,Tianzhang,23984.0,Valid,H5,2232.0,Observed,1986.0,32.94667,118.99,"(32.946670, 118.990000)"
947,Tieschitz,23989.0,Valid,H/L3.6,28000.0,Observed,1878.0,49.6,17.11667,"(49.600000, 17.116670)"
948,Tilden,23998.0,Valid,L6,74800.0,Observed,1927.0,38.2,-89.68333,"(38.200000, -89.683330)"
949,Tillaberi,23999.0,Valid,L6,3000.0,Observed,1970.0,14.25,1.53333,"(14.250000, 1.533330)"
950,Timochin,24004.0,Valid,H5,65500.0,Observed,1807.0,54.5,35.2,"(54.500000, 35.200000)"
951,Tirupati,24009.0,Valid,H6,230.0,Observed,1934.0,13.63333,79.41667,"(13.633330, 79.416670)"
952,Tissint,54823.0,Valid,Martian (shergottite),7000.0,Observed,2011.0,29.48195,-7.61123,"(29.481950, -7.611230)"
953,Tjabe,24011.0,Valid,H6,20000.0,Observed,1869.0,-7.08333,111.53333,"(-7.083330, 111.533330)"
954,Tjerebon,24012.0,Valid,L5,16500.0,Observed,1922.0,-6.66667,106.58333,"(-6.666670, 106.583330)"
955,Tomakovka,24019.0,Valid,LL6,600.0,Observed,1905.0,47.85,34.76667,"(47.850000, 34.766670)"
956,Tomatlan,24020.0,Valid,H6,900.0,Observed,1879.0,20.16667,-105.21667,"(20.166670, -105.216670)"
957,Tomita,24023.0,Valid,L,600.0,Observed,1916.0,34.5,133.75,"(34.500000, 133.750000)"
958,Tomiya,24024.0,Valid,H4/5,27.5,Observed,1984.0,38.36667,140.86556,"(38.366670, 140.865560)"
959,Tonk,24026.0,Valid,CI1,7.7,Observed,1911.0,24.65,76.86667,"(24.650000, 76.866670)"
960,Torino,24029.0,Valid,H6,977.0,Observed,1988.0,45.06667,7.66667,"(45.066670, 7.666670)"
961,Torrington,24032.0,Valid,H6,259.1,Observed,1944.0,42.06667,-104.16667,"(42.066670, -104.166670)"
962,Toulouse,24036.0,Valid,H6,1030.0,Observed,1812.0,43.6,1.4,"(43.600000, 1.400000)"
963,Tounkin,24037.0,Valid,OC,2000.0,Observed,1824.0,51.73333,102.53333,"(51.733330, 102.533330)"
964,Tourinnes-la-Grosse,24038.0,Valid,L6,14500.0,Observed,1863.0,50.78333,4.76667,"(50.783330, 4.766670)"
965,Trebbin,24042.0,Valid,LL6,1250.0,Observed,1988.0,52.21667,13.16667,"(52.216670, 13.166670)"
966,Trenzano,24046.0,Valid,H3/4,11800.0,Observed,1856.0,45.46667,10.0,"(45.466670, 10.000000)"
967,Treysa,24050.0,Valid,"Iron, IIIAB-an",63000.0,Observed,1916.0,50.91667,9.18333,"(50.916670, 9.183330)"
968,Tromøy,24053.0,Valid,H,357.4,Observed,1950.0,58.47333,8.86667,"(58.473330, 8.866670)"
969,Troup,24054.0,Valid,L6,1020.0,Observed,1917.0,32.16667,-95.1,"(32.166670, -95.100000)"
970,Trysil,24057.0,Valid,L/LL6,640.0,Observed,1927.0,61.3,12.3,"(61.300000, 12.300000)"
971,Tsukuba,24059.0,Valid,H5-6,800.0,Observed,1996.0,36.06333,140.145,"(36.063330, 140.145000)"
972,Tuan Tuc,24060.0,Valid,L6,13100.0,Observed,1921.0,9.66667,105.66667,"(9.666670, 105.666670)"
973,Tugalin-Bulen,24062.0,Valid,H6,10000.0,Observed,1967.0,45.46667,105.38333,"(45.466670, 105.383330)"
974,Turtle Lake,47343.0,Valid,L5,89.3,Observed,1996.0,45.34583,-92.05167,"(45.345830, -92.051670)"
975,Tuxtuac,24086.0,Valid,LL5,30000.0,Observed,1975.0,21.66667,-103.36667,"(21.666670, -103.366670)"
976,Tysnes Island,24094.0,Valid,H4,19860.0,Observed,1884.0,60.0,5.61667,"(60.000000, 5.616670)"
977,Tyumen,24095.0,Valid,Iron,750.0,Observed,1903.0,57.16667,65.53333,"(57.166670, 65.533330)"
978,Uberaba,24096.0,Valid,H5,40000.0,Observed,1903.0,-19.81667,-48.78333,"(-19.816670, -48.783330)"
979,Ucera,24097.0,Valid,H5,4590.0,Observed,1970.0,11.05,-69.85,"(11.050000, -69.850000)"
980,Uchkuduk,24098.0,Valid,L6,1000.0,Observed,1989.0,41.76667,62.51667,"(41.766670, 62.516670)"
981,Udei Station,24101.0,Valid,"Iron, IAB-ung",103000.0,Observed,1927.0,7.95,8.08333,"(7.950000, 8.083330)"
982,Uden,24103.0,Valid,LL7,710.0,Observed,1840.0,51.65,5.61667,"(51.650000, 5.616670)"
983,Udipi,24104.0,Valid,H5,3600.0,Observed,1866.0,13.48333,74.78333,"(13.483330, 74.783330)"
984,Ufana,24106.0,Valid,EL6,189.2,Observed,1957.0,-4.26667,35.35,"(-4.266670, 35.350000)"
985,Ulmiz,24108.0,Valid,L,76.5,Observed,1926.0,46.93333,7.21667,"(46.933330, 7.216670)"
986,Umbala,24112.0,Valid,LL5,100.0,Observed,1822.0,30.33333,76.33333,"(30.333330, 76.333330)"
987,Umm Ruaba,24118.0,Valid,L5,1700.0,Observed,1966.0,13.46667,31.21667,"(13.466670, 31.216670)"
988,Undulung,24121.0,Valid,L4,113.4,Observed,1986.0,66.13889,124.76667,"(66.138890, 124.766670)"
989,Unkoku,24123.0,Valid,OC,1000.0,Observed,1924.0,34.8,127.0,"(34.800000, 127.000000)"
990,Urasaki,24129.0,Valid,Stone-uncl,1500.0,Observed,1926.0,34.48333,133.28333,"(34.483330, 133.283330)"
991,Usti Nad Orlici,24132.0,Valid,L6,1269.0,Observed,1963.0,49.975,16.375,"(49.975000, 16.375000)"
992,Utrecht,24135.0,Valid,L6,9700.0,Observed,1843.0,52.11667,5.18333,"(52.116670, 5.183330)"
993,Utzenstorf,24136.0,Valid,H5,3422.0,Observed,1928.0,47.11667,7.55,"(47.116670, 7.550000)"
994,Uzcudun,24140.0,Valid,L,20000.0,Observed,1948.0,-44.11667,-66.15,"(-44.116670, -66.150000)"
995,Vago,24143.0,Valid,H6,40.0,Observed,1668.0,45.41667,11.13333,"(45.416670, 11.133330)"
996,Valdavur,24144.0,Valid,H6,2799.0,Observed,1944.0,11.98333,79.75,"(11.983330, 79.750000)"
997,Valdinizza,24145.0,Valid,L6,1004.0,Observed,1903.0,44.86667,9.15,"(44.866670, 9.150000)"
998,Valera,24149.0,Valid,L5,50000.0,Observed,1972.0,9.31667,-70.62833,"(9.316670, -70.628330)"
999,Varre-Sai,53633.0,Valid,L5,2500.0,Observed,2010.0,-20.85001,-41.73356,"(-20.850010, -41.733560)"
1000,Vavilovka,24154.0,Valid,LL6,1932.0,Observed,1876.0,46.15,32.83333,"(46.150000, 32.833330)"
1001,Vengerovo,24158.0,Valid,H5,10800.0,Observed,1950.0,56.13333,77.26667,"(56.133330, 77.266670)"
1002,Veramin,24162.0,Valid,Mesosiderite-B2,54000.0,Observed,1880.0,35.33333,51.63333,"(35.333330, 51.633330)"
1003,Verkhne Tschirskaia,24165.0,Valid,H5,8000.0,Observed,1843.0,48.41667,43.2,"(48.416670, 43.200000)"
1004,Vernon County,24168.0,Valid,H6,1500.0,Observed,1865.0,43.5,-91.16667,"(43.500000, -91.166670)"
1005,Vetluga,24169.0,Valid,Eucrite-mmict,750.0,Observed,1949.0,57.8,45.8,"(57.800000, 45.800000)"
1006,Vigarano,24174.0,Valid,CV3,15000.0,Observed,1910.0,44.85,11.4,"(44.850000, 11.400000)"
1007,Villalbeto de la Peña,24179.0,Valid,L6,3500.0,Observed,2004.0,42.8,-4.66667,"(42.800000, -4.666670)"
1008,Vilna,24183.0,Valid,L5,0.1,Observed,1967.0,54.225,-111.69167,"(54.225000, -111.691670)"
1009,Virba,24185.0,Valid,L6,3600.0,Observed,1873.0,43.53333,22.63333,"(43.533330, 22.633330)"
1010,Vishnupur,24187.0,Valid,LL4-6,2437.0,Observed,1906.0,23.1,87.43333,"(23.100000, 87.433330)"
1011,Vissannapeta,24188.0,Valid,Eucrite-cm,1303.8,Observed,1997.0,16.83333,80.75,"(16.833330, 80.750000)"
1012,Visuni,24189.0,Valid,H6,594.0,Observed,1915.0,25.45,70.0,"(25.450000, 70.000000)"
1013,Vouillé,24191.0,Valid,L6,20000.0,Observed,1831.0,46.63333,0.16667,"(46.633330, 0.166670)"
1014,Walters,24210.0,Valid,L6,28100.0,Observed,1946.0,34.33333,-98.3,"(34.333330, -98.300000)"
1015,Warrenton,24215.0,Valid,CO3.7,1600.0,Observed,1877.0,38.68333,-91.15,"(38.683330, -91.150000)"
1016,Washougal,24218.0,Valid,Howardite,225.0,Observed,1939.0,45.58333,-122.35,"(45.583330, -122.350000)"
1017,Werdama,47344.0,Valid,H5,4000.0,Observed,2006.0,32.79732,21.78713,"(32.797320, 21.787130)"
1018,Wessely,24244.0,Valid,H5,3750.0,Observed,1831.0,48.95,17.38333,"(48.950000, 17.383330)"
1019,Weston,24249.0,Valid,H4,150000.0,Observed,1807.0,41.266667,-73.266667,"(41.266667, -73.266667)"
1020,Wethersfield (1971),24250.0,Valid,L6,350.0,Observed,1971.0,41.7,-72.65,"(41.700000, -72.650000)"
1021,Wethersfield (1982),24251.0,Valid,L6,2756.0,Observed,1982.0,41.71056,-72.67361,"(41.710560, -72.673610)"
1022,Whetstone Mountains,49514.0,Valid,H5,2138.74,Observed,2009.0,31.96185,-110.434183,"(31.961850, -110.434183)"
1023,Wiluna,24281.0,Valid,H5,150000.0,Observed,1967.0,-26.59278,120.32833,"(-26.592780, 120.328330)"
1024,Witklip Farm,24321.0,Valid,H5,22.0,Observed,1918.0,-26.0,30.0,"(-26.000000, 30.000000)"
1025,Witsand Farm,24322.0,Valid,LL4,66.0,Observed,1932.0,-28.66667,18.91667,"(-28.666670, 18.916670)"
1026,Wittekrantz,24323.0,Valid,L5,2200.0,Observed,1880.0,-32.5,23.0,"(-32.500000, 23.000000)"
1027,Wolamo,24324.0,Valid,OC,166.4,Observed,1964.0,9.0,39.0,"(9.000000, 39.000000)"
1028,Wold Cottage,24325.0,Valid,L6,25000.0,Observed,1795.0,54.13667,-0.41333,"(54.136670, -0.413330)"
1029,Woolgorong,24334.0,Valid,L6,36000.0,Observed,1960.0,-27.75,115.83333,"(-27.750000, 115.833330)"
1030,Worden,24337.0,Valid,L5,1551.0,Observed,1997.0,42.38467,-83.6115,"(42.384670, -83.611500)"
1031,Wuan,24340.0,Valid,H6,50000.0,Observed,1986.0,36.75,114.25,"(36.750000, 114.250000)"
1032,Xi Ujimgin,24345.0,Valid,L/LL6-an,5900.0,Observed,1980.0,44.66667,117.5,"(44.666670, 117.500000)"
1033,Xingyang,24346.0,Valid,H6,75500.0,Observed,1977.0,32.33333,114.31667,"(32.333330, 114.316670)"
1034,Yafa,24351.0,Valid,H5,5700.0,Observed,2000.0,13.71111,45.17,"(13.711110, 45.170000)"
1035,Yambo,30345.0,Valid,H5,4.0,Observed,1951.0,1.0,22.5,"(1.000000, 22.500000)"
1036,Yangchiang,30348.0,Valid,H5,20000.0,Observed,1954.0,21.83333,111.83333,"(21.833330, 111.833330)"
1037,Yanzhuang,30350.0,Valid,H6,3500.0,Observed,1990.0,24.56667,114.16667,"(24.566670, 114.166670)"
1038,Yardymly,30352.0,Valid,"Iron, IAB complex",150200.0,Observed,1959.0,38.93333,48.25,"(38.933330, 48.250000)"
1039,Yatoor,30358.0,Valid,H5,13600.0,Observed,1852.0,14.3,79.76667,"(14.300000, 79.766670)"
1040,Yonozu,30366.0,Valid,H4/5,31650.0,Observed,1837.0,37.75,139.0,"(37.750000, 139.000000)"
